     2.11           OBSERVATION DATA    M (MIXED)           RINEX VERSION / TYPE
teqc  2015Nov6      NOAA/NOS/NGS/CORS   20160323 23:45:28UTCPGM / RUN BY / DATE
Solaris x86 5.10|AMD64|cc SC5.8 -xarch=amd64|=+|=+          COMMENT
Spider V5.3.1.6235                      2016 03 23 22:59    COMMENT
BIT 2 OF LLI FLAGS DATA COLLECTED UNDER A/S CONDITION       COMMENT
SNR is mapped to RINEX snr flag value [1-9]                 COMMENT
LX:    >= 25dBHz -> 1; 26-27dBHz -> 2; 28-31dBHz -> 3       COMMENT
       32-35dBHz -> 4; 36-38dBHz -> 5; 39-41dBHz -> 6       COMMENT
       42-44dBHz -> 7; 45-48dBHz -> 8; >= 49dBHz -> 9       COMMENT
CAPO                                                        MARKER NAME
3215                                                        MARKER NUMBER
SmartNet  NA        SMRTNT                                  OBSERVER / AGENCY
353424              LEICA GRX1200GGPRO  9.20/3.823          REC # / TYPE / VERS
200005              LEIAT504GG      LEIS                    ANT # / TYPE
 -2693674.7660 -4273831.4480  3880383.2100                  APPROX POSITION XYZ
        0.0000        0.0000        0.0000                  ANTENNA: DELTA H/E/N
     1     1                                                WAVELENGTH FACT L1/2
     4    C1    L1    P2    L2                              # / TYPES OF OBSERV
     1.0000                                                 INTERVAL
teqc windowed: start @ 2016 Mar 23 21:00:00.000             COMMENT
teqc windowed: delta = 3600.000 sec                         COMMENT
teqc edited: all SBAS satellites excluded                   COMMENT
teqc edited: all Compass satellites excluded                COMMENT
teqc edited: all QZSS satellites excluded                   COMMENT
  2016     3    23    21     0    0.0000000     GPS         TIME OF FIRST OBS
    17                                                      LEAP SECONDS
                                                            END OF HEADER
 16  3 23 21  0  0.0000000  0 17G03G05G07G08G09G16G23G27G28G30R01R02
                                R08R10R11R20R21
  24796342.320   130305654.375 7  24796350.780   101536910.34844
  25190885.640   132378983.006 6  25190888.160   103152461.29945
  21051150.540   110624620.259 9  21051150.260    86201008.51149
  23421564.560   123081202.207 8  23421569.400    95907479.42146
  20185617.780   106076176.016 9  20185619.020    82656791.17049
  23130311.660   121550668.474 8  23130312.240    94714828.27745
  20937631.020   110028009.908 9  20937628.860    85736089.91848
  23236950.980   122111060.630 8  23236954.460    95151519.20447
  24745795.000   130040039.748 5  24745801.000   101329927.53244
  22689126.620   119232196.073 8  22689129.940    92908238.72547
  19696900.600   105291228.038 9  19696908.880    81893217.520 8
  20421021.260   108970512.591 9  20421028.640    84754884.153 8
  22976858.540   123039947.813 8  22976866.840    95697727.605 7
  23872573.280   127254241.125 7  23872585.300    98975574.935 4
  20160733.800   107732910.451 9
  23805155.520   127296861.400 5  23805164.340    99008704.552 6
  23917054.600   127984992.890 8  23917063.100    99543929.943 6
 16  3 23 21  0  1.0000000  0 17G03G05G07G08G09G16G23G27G28G30R01R02
                                R08R10R11R20R21
  24797051.340   130309380.217 6  24797059.760   101539813.58644
  25190350.480   132376170.758 6  25190353.020   103150269.92645
  21050940.380   110623515.850 9  21050940.100    86200147.93349
  23421105.600   123078790.456 8  23421110.440    95905600.13746
  20185562.900   106075887.583 9  20185564.120    82656566.41849
  23130937.160   121553955.559 8  23130937.740    94717389.64445
  20937922.440   110029541.438 9  20937920.300    85737283.31848
  23236742.920   122109967.214 8  23236746.380    95150667.18847
  24745116.520   130036474.432 5  24745122.580   101327149.41242
  22688698.080   119229944.161 8  22688701.420    92906483.99347
  19697284.620   105293280.776 9  19697292.900    81894814.089 8
  20420560.800   108968055.411 9  20420568.160    84752973.015 8
  22977674.080   123044315.119 8  22977682.420    95701124.392 6
  23873217.000   127257672.589 7  23873229.040    98978243.853 4
  20161115.200   107734948.614 9
  23804991.280   127295983.359 5  23805000.160    99008021.626 6
  23916493.240   127981988.873 8  23916501.740    99541593.480 6
 16  3 23 21  0  2.0000000  0 17G03G05G07G08G09G16G23G27G28G30R01R02
                                R08R10R11R20R21
  24797760.380   130313106.231 7  24797768.860   101542716.96044
  25189815.420   132373358.970 6  25189817.980   103148078.93345
  21050730.280   110622411.754 9  21050730.000    86199287.59949
  23420646.740   123076379.102 8  23420651.580    95903721.16146
  20185508.120   106075599.715 9  20185509.340    82656342.10649
  23131562.760   121557243.051 8  23131563.320    94719951.32645
  20938214.000   110031073.525 9  20938211.840    85738477.15048
  23236534.980   122108874.456 8  23236538.440    95149815.68447
  24744438.120   130032909.301 4  24744444.180   101324371.43044
  22688269.600   119227692.552 8  22688272.960    92904729.49447
  19697668.780   105295334.401 9  19697677.060    81896411.353 8
  20420100.480   108965599.034 9  20420107.840    84751062.499 8
  22978489.700   123048682.681 8  22978498.040    95704521.376 6
  23873860.760   127261104.062 7  23873872.760    98980912.772 4
  20161496.680   107736987.149 9
  23804827.240   127295106.116 5  23804836.120    99007339.323 6
  23915931.940   127978985.208 7  23915940.420    99539257.293 6
 16  3 23 21  0  3.0000000  0 17G03G05G07G08G09G16G23G27G28G30R01R02
                                R08R10R11R20R21
  24798469.420   130316832.206 7  24798477.900   101545620.30144
  25189280.420   132370547.602 6  25189283.000   103145888.26945
  21050520.240   110621307.976 9  21050519.940    86198427.51049
  23420187.920   123073968.123 8  23420192.800    95901842.48946
  20185453.460   106075312.401 9  20185454.680    82656118.22349
  23132188.400   121560530.920 8  23132188.980    94722513.29545
  20938505.640   110032606.153 9  20938503.500    85739671.40648
  23236327.140   122107782.328 8  23236330.640    95148964.67546
  24743759.720   130029344.361 4  24743765.660   101321593.56944
  22687841.200   119225441.211 8  22687844.520    92902975.20947
  19698053.140   105297388.905 9  19698061.400    81898009.299 8
  20419640.280   108963143.401 9  20419647.660    84749152.565 8
  22979305.360   123053050.509 8  22979313.720    95707918.563 6
  23874504.480   127264535.521 7  23874516.500    98983581.683 4
  20161878.240   107739026.060 9
  23804663.400   127294229.687 5  23804672.220    99006657.659 6
  23915370.680   127975981.902 7  23915379.200    99536921.386 6
 16  3 23 21  0  4.0000000  0 17G03G05G07G08G09G16G23G27G28G30R01R02
                                R08R10R11R20R21
  24799178.460   130320558.210 6  24799186.920   101548523.67545
  25188745.520   132367736.641 6  25188748.060   103143697.91045
  21050310.260   110620204.466 9  21050309.960    86197567.63449
  23419729.180   123071557.475 8  23419734.080    95899964.06246
  20185398.880   106075025.592 9  20185400.100    82655894.73749
  23132814.120   121563819.127 8  23132814.720    94725075.53945
  20938797.380   110034139.273 9  20938795.240    85740866.04548
  23236119.420   122106690.760 8  23236122.940    95148114.10946
  24743081.340   130025779.524 4  24743087.320   101318815.77845
  22687412.820   119223190.093 8  22687416.140    92901221.09346
  19698437.620   105299444.246 9  19698445.900    81899607.893 8
  20419180.220   108960688.465 9  20419187.600    84747243.170 8
  22980121.060   123057418.583 8  22980129.460    95711315.943 7
  23875148.180   127267966.930 7  23875160.240    98986250.554 4
  20162259.860   107741065.306 9
  23804499.660   127293354.091 5  23804508.500    99005976.643 5
  23914809.500   127972978.915 7  23914818.020    99534585.729 6
 16  3 23 21  0  5.0000000  0 17G03G05G07G08G09G16G23G27G28G30R01R02
                                R08R10R11R20R21
  24799887.520   130324284.146 6  24799895.940   101551426.99345
  25188210.680   132364926.009 6  25188213.200   103141507.79545
  21050100.300   110619101.184 9  21050100.020    86196707.93849
  23419270.500   123069147.130 8  23419275.420    95898085.87346
  20185344.380   106074739.247 9  20185345.600    82655671.60949
  23133439.900   121567107.646 8  23133440.480    94727638.01845
  20939089.220   110035672.848 9  20939087.080    85742061.03648
  23235911.820   122105599.783 8  23235915.340    95147263.99946
  24742403.020   130022214.825 5  24742408.860   101316038.07943
  22686984.480   119220939.161 8  22686987.780    92899467.12447
  19698822.280   105301500.378 9  19698830.560    81901207.109 8
  20418720.300   108958234.196 9  20418727.680    84745334.294 8
  22980936.820   123061786.887 8  22980945.220    95714713.503 7
  23875791.880   127271398.194 7  23875803.940    98988919.311 4
  20162641.540   107743104.845 9
  23804336.060   127292479.200 5  23804344.880    99005296.183 6
  23914248.380   127969976.267 7  23914256.900    99532250.339 6
 16  3 23 21  0  6.0000000  0 17G03G05G07G08G09G16G23G27G28G30R01R02
                                R08R10R11R20R21
  24800596.580   130328010.229 6  24800605.020   101554330.40145
  25187675.920   132362115.911 6  25187678.480   103139318.11044
  21049890.420   110617998.297 9  21049890.140    86195848.54548
  23418811.920   123066737.234 8  23418816.820    95896208.04046
  20185290.020   106074453.565 9  20185291.240    82655449.00049
  23134065.780   121570396.623 8  23134066.340    94730200.85545
  20939381.160   110037207.060 9  20939379.020    85743256.52648
  23235704.320   122104509.511 8  23235707.860    95146414.43846
  24741724.700   130018650.395 4  24741730.640   101313260.58643
  22686556.200   119218688.590 8  22686559.520    92897713.43246
  19699207.100   105303557.477 9  19699215.380    81902807.073 8
  20418260.540   108955780.796 9  20418267.920    84743426.096 8
  22981752.640   123066155.580 8  22981761.060    95718111.365 6
  23876435.620   127274829.568 7  23876447.680    98991588.151 4
  20163023.280   107745144.847 9
  23804172.600   127291605.247 5  23804181.460    99004616.453 5
  23913687.340   127966974.077 8  23913695.880    99529915.304 6
 16  3 23 21  0  7.0000000  0 17G03G05G07G08G09G16G23G27G28G30R01R02
                                R08R10R11R20R21
  24801305.640   130331736.446 6  24801314.160   101557233.95144
  25187141.300   132359306.408 6  25187143.880   103137128.89945
  21049680.640   110616895.885 9  21049680.340    86194989.52348
  23418353.420   123064327.847 8  23418358.320    95894330.60046
  20185235.800   106074168.569 9  20185237.000    82655226.92549
  23134691.740   121573686.144 8  23134692.340    94732764.11445
  20939673.240   110038741.964 9  20939671.100    85744452.55548
  23235497.000   122103420.002 8  23235500.540    95145565.47146
  24741046.460   130015086.330 5  24741052.380   101310483.43844
  22686128.000   119216438.457 8  22686131.320    92895960.08247
  19699592.120   105305615.598 9  19699600.400    81904407.833 7
  20417800.940   108953328.323 9  20417808.340    84741518.619 8
  22982568.520   123070524.674 8  22982576.980    95721509.540 6
  23877079.360   127278261.046 7  23877091.400    98994257.070 4
  20163405.140   107747185.397 9
  23804009.400   127290732.266 5  23804018.200    99003937.465 5
  23913126.400   127963972.381 7  23913134.960    99527580.660 6
 16  3 23 21  0  8.0000000  0 17G03G05G07G08G09G16G23G27G28G30R01R02
                                R08R10R11R20R21
  24802014.760   130335462.744 6  24802023.240   101560137.56644
  25186606.760   132356497.340 6  25186609.400   103134940.01744
  21049470.920   110615793.781 9  21049470.620    86194130.74049
  23417895.000   123061918.836 8  23417899.900    95892453.44946
  20185181.660   106073884.137 9  20185182.880    82655005.28649
  23135317.800   121576976.033 8  23135318.380    94735327.65945
  20939965.440   110040277.412 9  20939963.300    85745649.00448
  23235289.800   122102331.130 8  23235293.340    95144717.00346
  24740368.280   130011522.410 5  24740374.140   101307706.38044
  22685699.860   119214188.561 8  22685703.160    92894206.91747
  19699977.300   105307674.581 9  19699985.560    81906009.261 8
  20417341.500   108950876.631 9  20417348.900    84739611.748 8
  22983384.480   123074894.028 8  22983392.940    95724907.914 6
  23877723.080   127281692.529 7  23877735.160    98996925.995 4
  20163787.080   107749226.312 9
  23803846.340   127289860.080 5  23803855.100    99003259.096 6
  23912565.560   127960971.069 8  23912574.100    99525246.310 6
 16  3 23 21  0  9.0000000  0 17G03G05G07G08G09G16G23G27G28G30R01R02
                                R08R10R11R20R21
  24802723.800   130339188.772 6  24802732.260   101563040.94845
  25186072.220   132353688.471 6  25186074.860   103132751.29244
  21049261.200   110614691.768 9  21049260.920    86193272.02948
  23417436.600   123059509.978 8  23417441.520    95890576.41846
  20185127.600   106073600.027 9  20185128.820    82654783.90349
  23135943.860   121580266.100 8  23135944.480    94737891.34845
  20940257.680   110041813.178 9  20940255.540    85746845.70548
  23235082.680   122101242.689 8  23235086.220    95143868.86946
  24739690.080   130007958.479 5  24739695.980   101304929.30344
  22685271.740   119211938.744 8  22685275.040    92892453.81447
  19700362.580   105309734.204 9  19700370.860    81907611.190 8
  20416882.160   108948425.510 9  20416889.560    84737705.322 8
  22984200.440   123079263.459 8  22984208.920    95728306.350 6
  23878366.760   127285123.751 7  23878378.860    98999594.715 4
  20164169.040   107751267.374 9
  23803683.420   127288988.478 5  23803692.100    99002581.182 6
  23912004.720   127957969.903 8  23912013.260    99522912.072 6
 16  3 23 21  0 10.0000000  0 17G03G05G07G08G09G16G23G27G28G30R01R02
                                R08R10R11R20R21
  24803432.820   130342914.753 6  24803441.280   101565944.29945
  25185537.760   132350879.870 6  25185540.440   103130562.77345
  21049051.540   110613589.876 9  21049051.240    86192413.41849
  23416978.260   123057101.333 8  23416983.180    95888699.56046
  20185073.620   106073316.289 9  20185074.820    82654562.80749
  23136569.980   121583556.351 8  23136570.580    94740455.17645
  20940550.000   110043349.298 9  20940547.860    85748042.67748
  23234875.620   122100154.676 8  23234879.180    95143021.06246
  24739011.900   130004394.543 5  24739017.720   101302152.22844
  22684843.620   119209689.003 8  22684846.940    92890700.76747
  19700748.000   105311794.492 9  19700756.300    81909213.636 8
  20416422.940   108945974.976 9  20416430.340    84735799.354 8
  22985016.400   123083633.014 7  22985024.920    95731704.883 7
  23879010.400   127288554.778 7  23879022.520    99002263.282 4
  20164551.020   107753308.613 9
  23803520.520   127288117.566 5  23803529.260    99001903.799 6
  23911443.920   127954968.925 7  23911452.480    99520577.980 6
 16  3 23 21  0 11.0000000  0 17G03G05G07G08G09G16G23G27G28G30R01R02
                                R08R10R11R20R21
  24804141.820   130346640.507 6  24804150.260   101568847.47245
  25185003.320   132348071.439 6  25185005.980   103128374.37645
  21048841.860   110612488.032 9  21048841.560    86191554.83849
  23416519.920   123054692.774 8  23416524.840    95886822.75546
  20185019.680   106073032.832 9  20185020.880    82654341.93549
  23137196.120   121586846.737 8  23137196.720    94743019.10945
  20940842.360   110044885.700 9  20940840.240    85749239.87348
  23234668.640   122099067.041 8  23234672.200    95142173.55346
  24738333.680   130000830.570 5  24738339.600   101299375.08442
  22684415.500   119207439.288 8  22684418.800    92888947.74947
  19701133.540   105313855.382 9  19701141.820    81910816.546 8
  20415963.800   108943524.912 9  20415971.200    84733893.748 8
  22985832.400   123088002.581 7  22985840.940    95735103.425 6
  23879654.000   127291985.480 7  23879666.120    99004931.601 4
  20164933.040   107755349.967 9
  23803357.760   127287247.124 5  23803366.480    99001226.787 6
  23910883.160   127951968.017 7  23910891.700    99518243.947 6
 16  3 23 21  0 12.0000000  0 18G03G05G07G08G09G16G23G27G28G30R01R02
                                R08R10R11R13R20R21
  24804850.780   130350366.033 6  24804859.240   101571750.46745
  25184468.960   132345263.248 6  25184471.600   103126186.17544
  21048632.220   110611386.351 9  21048631.920    86190696.38349
  23416061.620   123052284.451 8  23416066.560    95884946.14246
  20184965.820   106072749.780 9  20184967.020    82654121.37549
  23137822.300   121590137.335 8  23137822.920    94745583.21345
  20941134.800   110046422.485 9  20941132.680    85750437.36648
  23234461.760   122097979.858 8  23234465.340    95141326.39747
  24737655.480   129997266.600 6  24737661.440   101296597.99144
  22683987.420   119205189.647 8  22683990.700    92887194.78647
  19701519.200   105315916.963 9  19701527.480    81912419.998 8
  20415504.760   108941075.424 9  20415512.160    84731988.593 8
  22986648.420   123092372.267 7  22986656.960    95738502.061 6
  23880297.580   127295416.017 7  23880309.660    99007599.801 4
  20165315.080   107757391.515 9
  24255800.520   129524620.78514  24255812.340   100741420.66615
  23803195.160   127286377.426 5  23803203.840    99000550.355 6
  23910322.400   127948967.365 7  23910330.980    99515910.115 6
 16  3 23 21  0 13.0000000  0 18G03G05G07G08G09G16G23G27G28G30R01R02
                                R08R10R11R13R20R21
  24805559.700   130354091.414 6  24805568.160   101574653.34545
  25183934.620   132342455.291 6  25183937.320   103123998.15244
  21048422.580   110610284.725 9  21048422.280    86189837.97149
  23415603.360   123049876.282 8  23415608.280    95883069.65046
  20184912.020   106072467.038 9  20184913.220    82653901.05549
  23138448.500   121593428.083 8  23138449.140    94748147.43645
  20941427.320   110047959.562 9  20941425.160    85751635.08948
  23234254.960   122096893.085 8  23234258.540    95140479.56846
  24736977.280   129993702.572 6  24736983.340   101293820.81841
  22683559.340   119202940.063 8  22683562.640    92885441.86347
  19701904.980   105317979.189 9  19701913.260    81914023.950 8
  20415045.820   108938626.437 9  20415053.220    84730083.827 8
  22987464.440   123096741.961 7  22987473.000    95741900.701 6
  23880941.100   127298846.274 7  23880953.180    99010267.787 3
  20165697.140   107759433.208 9
  24255205.440   129521443.002 4  24255217.260   100738949.064 5
  23803032.640   127285508.286 5  23803041.320    98999874.367 6
  23909761.680   127945966.828 7  23909770.260    99513576.368 6
 16  3 23 21  0 14.0000000  0 18G03G05G07G08G09G16G23G27G28G30R01R02
                                R08R10R11R13R20R21
  24806268.600   130357816.701 6  24806277.020   101577556.17045
  25183400.340   132339647.594 6  25183403.020   103121810.32244
  21048212.980   110609183.293 9  21048212.700    86188979.71348
  23415145.140   123047468.330 8  23415150.080    95881193.33046
  20184858.300   106072184.722 9  20184859.500    82653681.06649
  23139074.760   121596719.078 8  23139075.380    94750711.84445
  20941719.880   110049497.054 9  20941717.740    85752833.13248
  23234048.240   122095806.804 8  23234051.840    95139633.11446
  24736299.100   129990138.588 6  24736305.140   101291043.69644
  22683131.280   119200690.627 8  22683134.580    92883689.06047
  19702290.900   105320042.142 9  19702299.180    81915628.469 8
  20414587.000   108936178.086 9  20414594.400    84728179.554 8
  22988280.480   123101111.813 7  22988289.060    95745299.465 6
  23881584.600   127302276.385 7  23881596.640    99012935.655 3
  20166079.240   107761475.126 9
  24254610.420   129518265.445 4  24254622.220   100736477.634 6
  23802870.260   127284639.815 5  23802878.940    98999198.896 6
  23909201.020   127942966.546 7  23909209.600    99511242.817 6
 16  3 23 21  0 15.0000000  0 18G03G05G07G08G09G16G23G27G28G30R01R02
                                R08R10R11R13R20R21
  24806977.520   130361542.130 6  24806986.000   101580459.08345
  25182866.160   132336840.435 6  25182868.840   103119622.92444
  21048003.460   110608082.255 9  21048003.180    86188121.76549
  23414687.020   123045060.853 8  23414691.960    95879317.37846
  20184804.700   106071903.047 9  20184805.900    82653461.58149
  23139701.100   121600010.543 8  23139701.740    94753276.61645
  20942012.580   110051035.166 9  20942010.440    85754031.66148
  23233841.660   122094721.232 8  23233845.260    95138787.21246
  24735620.920   129986574.870 6  24735626.920   101288266.78543
  22682703.280   119198441.527 8  22682706.580    92881936.51547
  19702677.000   105322106.044 9  19702685.280    81917233.726 8
  20414128.340   108933730.623 9  20414135.740    84726275.974 8
  22989096.560   123105482.069 7  22989105.200    95748698.540 6
  23882228.080   127305706.549 7  23882240.140    99015603.556 3
  20166461.460   107763517.505 9
  24254015.400   129515088.199 4  24254027.240   100734006.449 6
  23802708.040   127283772.287 5  23802716.700    98998524.152 6
  23908640.440   127939966.675 7  23908649.020    99508909.587 6
 16  3 23 21  0 16.0000000  0 18G03G05G07G08G09G16G23G27G28G30R01R02
                                R08R10R11R13R20R21
  24807686.420   130365267.477 6  24807694.900   101583361.93944
  25182332.020   132334033.603 6  25182334.700   103117435.76945
  21047793.980   110606981.459 9  21047793.700    86187264.00249
  23414228.940   123042653.677 8  23414233.900    95877441.65646
  20184751.180   106071621.845 9  20184752.380    82653242.46049
  23140327.520   121603302.307 8  23140328.120    94755841.62345
  20942305.360   110052573.748 9  20942303.220    85755230.55548
  23233635.200   122093636.230 8  23233638.800    95137941.75847
  24734942.840   129983011.302 6  24734948.760   101285490.0014
  22682275.340   119196192.621 8  22682278.620    92880184.12347
  19703063.240   105324170.747 9  19703071.520    81918839.604 8
  20413669.820   108931283.891 9  20413677.240    84724372.960 8
  22989912.720   123109852.542 7  22989921.360    95752097.789 6
  23882871.580   127309136.614 7  23882883.580    99018271.384 3
  20166843.720   107765560.200 9
  24253420.360   129511911.202 4  24253432.300   100731535.460 5
  23802546.000   127282905.493 5  23802554.600    98997849.975 5
  23908079.880   127936967.104 7  23908088.500    99506576.591 6
 16  3 23 21  0 17.0000000  0 18G03G05G07G08G09G16G23G27G28G30R01R02
                                R08R10R11R13R20R21
  24808395.300   130368992.669 6  24808403.780   101586264.67644
  25181797.940   132331227.064 6  25181800.620   103115248.84244
  21047584.540   110605880.789 9  21047584.240    86186406.33649
  23413770.900   123040246.671 8  23413775.860    95875566.06546
  20184697.740   106071341.005 9  20184698.940    82653023.62849
  23140953.960   121606594.277 8  23140954.560    94758406.79445
  20942598.220   110054112.680 9  20942596.080    85756429.72448
  23233428.800   122092551.667 8  23233432.400    95137096.64247
  24734264.720   129979447.726 6  24734270.660   101282713.19543
  22681847.400   119193943.821 8  22681850.700    92878431.81547
  19703449.620   105326236.130 9  19703457.900    81920446.011 8
  20413211.420   108928837.770 9  20413218.840    84722470.422 8
  22990728.900   123114223.095 7  22990737.560    95755497.098 6
  23883515.060   127312566.490 7  23883526.960    99020939.062 3
  20167226.020   107767603.077 9
  24252825.380   129508734.266 4  24252837.380   100729064.512 6
  23802384.020   127282039.307 5  23802392.620    98997176.265 5
  23907519.380   127933967.750 7  23907528.000    99504243.769 6
 16  3 23 21  0 18.0000000  0 18G03G05G07G08G09G16G23G27G28G30R01R02
                                R08R10R11R13R20R21
  24809104.200   130372717.885 6  24809112.680   101589167.42344
  25181263.920   132328420.910 6  25181266.680   103113062.23444
  21047375.140   110604780.385 9  21047374.840    86185548.87649
  23413312.940   123037840.014 8  23413317.920    95873690.75746
  20184644.400   106071060.691 9  20184645.600    82652805.20049
  23141580.460   121609886.596 8  23141581.040    94760972.23445
  20942891.160   110055652.125 9  20942889.020    85757629.28748
  23233222.540   122091467.692 8  23233226.140    95136251.98647
  24733586.620   129975884.286 6  24733592.520   101279936.48743
  22681419.500   119191695.246 8  22681422.800    92876679.67747
  19703836.140   105328302.349 9  19703844.440    81922053.070 8
  20412753.140   108926392.369 9  20412760.560    84720568.444 8
  22991545.080   123118593.855 7  22991553.780    95758896.567 6
  23884158.520   127315996.307 7  23884170.340    99023606.701 3
  20167608.360   107769646.287 9
  24252230.460   129505557.579 4  24252242.520   100726593.759 5
  23802222.200   127281173.916 5  23802230.780    98996503.166 5
  23906958.940   127930968.709 7  23906967.560    99501911.192 6
 16  3 23 21  0 19.0000000  0 18G03G05G07G08G09G16G23G27G28G30R01R02
                                R08R10R11R13R20R21
  24809813.080   130376443.151 6  24809821.580   101592070.21145
  25180730.000   132325615.225 6  25180732.800   103110875.98844
  21047165.800   110603680.335 9  21047165.520    86184691.69848
  23412855.040   123035433.755 8  23412860.040    95871815.75146
  20184591.160   106070780.958 9  20184592.360    82652587.22649
  23142207.060   121613179.338 8  23142207.640    94763538.00345
  20943184.240   110057192.149 9  20943182.080    85758829.30248
  23233016.380   122090384.396 8  23233020.000    95135407.85946
  24732908.580   129972321.078 6  24732914.580   101277159.97543
  22680991.660   119189446.982 8  22680994.960    92874927.78446
  19704222.840   105330369.479 9  19704231.140    81923660.836 8
  20412295.020   108923947.727 9  20412302.440    84718667.055 8
  22992361.340   123122964.890 8  22992370.040    95762296.250 6
  23884801.940   127319426.146 7  23884813.760    99026274.356 3
  20167990.800   107771689.899 9
  24251635.680   129502381.305 4  24251647.720   100724123.326 5
  23802060.480   127280309.408 5  23802069.100    98995830.766 5
  23906398.580   127927970.078 7  23906407.220    99499578.927 6
 16  3 23 21  0 20.0000000  0 18G03G05G07G08G09G16G23G27G28G30R01R02
                                R08R10R11R13R20R21
  24810521.960   130380168.427 5  24810530.560   101594973.02444
  25180196.180   132322809.932 6  25180198.980   103108690.05244
  21046956.520   110602580.538 9  21046956.240    86183834.71349
  23412397.220   123033027.813 8  23412402.220    95869940.99546
  20184538.040   106070501.726 9  20184539.240    82652369.64349
  23142833.700   121616472.388 8  23142834.280    94766104.01346
  20943477.380   110058732.650 9  20943475.240    85760029.69248
  23232810.340   122089301.677 8  23232813.960    95134564.18246
  24732230.560   129968757.977 6  24732236.580   101274383.55943
  22680563.880   119187198.938 8  22680567.180    92873176.06047
  19704609.680   105332437.417 9  19704618.000    81925269.230 8
  20411837.020   108921503.748 9  20411844.440    84716766.185 8
  22993177.660   123127336.201 7  22993186.360    95765696.153 6
  23885445.360   127322855.918 7  23885457.140    99028941.962 3
  20168373.300   107773733.833 9
  24251040.900   129499205.176 4  24251052.940   100721653.005 6
  23801898.980   127279445.655 5  23801907.580    98995158.957 5
  23905838.280   127924971.756 7  23905846.920    99497246.901 6
 16  3 23 21  0 21.0000000  0 18G03G05G07G08G09G16G23G27G28G30R01R02
                                R08R10R11R13R20R21
  24811230.840   130383893.679 5  24811239.480   101597875.79546
  25179662.400   132320005.007 6  25179665.220   103106504.39644
  21046747.280   110601481.014 9  21046747.000    86182977.94549
  23411939.460   123030622.220 8  23411944.440    95868066.51446
  20184485.000   106070223.002 9  20184486.200    82652152.45549
  23143460.420   121619765.787 8  23143461.020    94768670.29846
  20943770.640   110060273.660 9  20943768.480    85761230.48048
  23232604.420   122088219.534 8  23232608.020    95133720.95446
  24731552.560   129965195.024 6  24731558.520   101271607.21243
  22680136.120   119184951.094 8  22680139.400    92871424.49347
  19704996.700   105334506.194 9  19705005.000    81926878.274 8
  20411379.140   108919060.471 9  20411386.560    84714865.858 8
  22993994.000   123131707.785 7  22994002.720    95769096.265 6
  23886088.760   127326285.628 7  23886100.540    99031609.519 3
  20168755.840   107775778.081 9
  24250446.120   129496029.266 4  24250458.220   100719182.857 6
  23801737.640   127278582.708 5  23801746.200    98994487.778 6
  23905278.060   127921973.794 7  23905286.680    99494915.156 6
 16  3 23 21  0 22.0000000  0 18G03G05G07G08G09G16G23G27G28G30R01R02
                                R08R10R11R13R20R21
  24811939.720   130387618.822 6  24811948.360   101600778.48945
  25179128.720   132317200.442 6  25179131.520   103104319.01244
  21046538.100   110600381.697 9  21046537.800    86182121.33949
  23411481.760   123028216.917 8  23411486.720    95866192.25846
  20184432.040   106069944.734 9  20184433.240    82651935.62149
  23144087.180   121623059.457 8  23144087.800    94771236.79445
  20944063.960   110061815.104 9  20944061.800    85762431.60348
  23232398.600   122087137.921 8  23232402.220    95132878.14146
  24730874.580   129961632.188 6  24730880.540   101268830.96642
  22679708.400   119182703.455 8  22679711.700    92869673.09247
  19705383.840   105336575.746 9  19705392.160    81928487.926 8
  20410921.400   108916617.891 9  20410928.820    84712966.080 8
  22994810.400   123136079.578 7  22994819.120    95772496.542 6
  23886732.140   127329715.217 7  23886743.880    99034276.975 3
  20169138.440   107777822.600 9
  24249851.420   129492853.585 4  24249863.540   100716712.885 6
  23801576.380   127277720.491 5  23801584.960    98993817.172 6
  23904717.900   127918976.080 7  23904726.500    99492583.603 6
 16  3 23 21  0 23.0000000  0 18G03G05G07G08G09G16G23G27G28G30R01R02
                                R08R10R11R13R20R21
  24812648.560   130391343.893 5  24812657.280   101603681.12045
  25178595.100   132314396.224 6  25178597.880   103102133.90144
  21046328.940   110599282.627 9  21046328.660    86181264.91949
  23411024.100   123025811.898 8  23411029.080    95864318.21546
  20184379.180   106069666.950 9  20184380.380    82651719.16849
  23144714.000   121626353.439 8  23144714.620    94773803.53445
  20944357.400   110063357.016 9  20944355.220    85763633.09248
  23232192.880   122086056.879 8  23232196.500    95132035.77446
  24730196.640   129958069.427 6  24730202.500   101266054.7844
  22679280.720   119180455.984 8  22679284.020    92867921.82047
  19705771.140   105338646.092 9  19705779.460    81930098.195 8
  20410463.800   108914176.063 9  20410471.220    84711066.880 8
  22995626.840   123140451.556 7  22995635.560    95775896.957 6
  23887375.500   127333144.693 7  23887387.220    99036944.339 3
  20169521.080   107779867.414 9
  24249256.680   129489678.075 4  24249268.880   100714243.048 6
  23801415.280   127276859.009 5  23801423.860    98993147.133 6
  23904157.740   127915978.641 7  23904166.360    99490252.258 6
 16  3 23 21  0 24.0000000  0 18G03G05G07G08G09G16G23G27G28G30R01R02
                                R08R10R11R13R20R21
  24813357.440   130395069.022 5  24813366.120   101606583.81045
  25178061.540   132311592.373 6  25178064.300   103099949.07245
  21046119.840   110598183.789 9  21046119.560    86180408.68149
  23410566.500   123023407.191 8  23410571.480    95862444.42146
  20184326.420   106069389.642 9  20184327.600    82651503.08449
  23145340.900   121629647.732 8  23145341.500    94776370.51745
  20944650.900   110064899.405 9  20944648.740    85764834.95248
  23231987.260   122084976.386 8  23231990.880    95131193.83446
  24729518.680   129954506.810 6  24729524.380   101263278.68643
  22678853.080   119178208.737 8  22678856.380    92866170.72047
  19706158.600   105340717.247 9  19706166.920    81931709.094 8
  20410006.340   108911734.942 9  20410013.760    84709168.237 8
  22996443.300   123144823.732 7  22996452.060    95779297.528 6
  23888018.860   127336574.092 7  23888030.520    99039611.647 3
  20169903.820   107781912.530 9
  24248662.000   129486502.808 4  24248674.260   100711773.402 6
  23801254.320   127275998.305 5  23801262.900    98992477.705 5
  23903597.660   127912981.527 7  23903606.280    99487921.171 6
 16  3 23 21  0 25.0000000  0 18G03G05G07G08G09G16G23G27G28G30R01R02
                                R08R10R11R13R20R21
  24814066.280   130398794.141 5  24814074.980   101609486.47545
  25177528.060   132308788.885 6  25177530.840   103097764.51844
  21045910.800   110597085.229 9  21045910.500    86179552.65848
  23410108.960   123021002.802 8  23410113.960    95860570.87546
  20184273.740   106069112.849 9  20184274.920    82651287.40349
  23145967.840   121632942.365 8  23145968.500    94778937.75845
  20944944.520   110066442.292 9  20944942.340    85766037.19948
  23231781.760   122083896.489 8  23231785.380    95130352.35846
  24728840.760   129950944.326 6  24728846.480   101260502.74442
  22678425.480   119175961.702 8  22678428.780    92864419.78447
  19706546.200   105342789.226 9  19706554.520    81933320.631 8
  20409549.000   108909294.544 9  20409556.420    84707270.146 8
  22997259.800   123149196.108 7  22997268.580    95782698.257 6
  23888662.160   127340003.392 7  23888673.780    99042278.878 3
  20170286.600   107783957.969 9
  24248067.400   129483327.760 4  24248079.720   100709303.929 6
  23801093.480   127275138.338 5  23801102.060    98991808.840 5
  23903037.620   127909984.720 7  23903046.280    99485590.323 6
 16  3 23 21  0 26.0000000  0 18G03G05G07G08G09G16G23G27G28G30R01R02
                                R08R10R11R13R20R21
  24814775.120   130402519.088 5  24814783.800   101612389.02345
  25176994.620   132305985.684 6  25176997.480   103095580.20944
  21045701.780   110595986.808 9  21045701.480    86178696.74848
  23409651.460   123018598.628 8  23409656.480    95858697.49646
  20184221.140   106068836.434 9  20184222.320    82651072.01349
  23146594.820   121636237.210 8  23146595.480    94781505.16545
  20945238.180   110067985.554 9  20945236.020    85767239.74148
  23231576.360   122082817.058 8  23231580.000    95129511.23846
  24728162.820   129947381.856 6  24728168.400   101257726.7914
  22677997.900   119173714.777 8  22678001.200    92862668.93846
  19706933.940   105344861.903 9  19706942.260    81934932.708 8
  20409091.780   108906854.710 9  20409099.200    84705372.496 8
  22998076.340   123153568.629 7  22998085.120    95786099.098 6
  23889305.460   127343432.492 7  23889316.980    99044945.959 3
  20170669.420   107786003.627 9
  24247472.820   129480152.802 4  24247485.160   100706834.520 6
  23800932.760   127274278.995 5  23800941.340    98991140.454 6
  23902477.620   127906988.132 7  23902486.300    99483259.646 6
 16  3 23 21  0 27.0000000  0 18G03G05G07G08G09G16G23G27G28G30R01R02
                                R08R10R11R13R20R21
  24815483.960   130406243.994 5  24815492.620   101615291.53744
  25176461.260   132303182.811 6  25176464.140   103093396.16044
  21045492.800   110594888.603 9  21045492.500    86177841.00448
  23409194.020   123016194.720 8  23409199.040    95856824.32046
  20184168.620   106068560.490 9  20184169.820    82650856.98949
  23147221.880   121639532.345 8  23147222.540    94784072.79345
  20945531.940   110069529.262 9  20945529.780    85768442.63148
  23231371.060   122081738.157 8  23231374.660    95128670.53646
  24727484.940   129943819.484 7  24727490.500   101254950.8894
  22677570.340   119171468.034 8  22677573.660    92860918.22746
  19707321.820   105346935.354 9  19707330.140    81936545.393 8
  20408634.680   108904415.542 9  20408642.100    84703475.368 8
  22998892.900   123157941.322 7  22998901.720    95789500.075 6
  23889948.740   127346861.510 7  23889960.240    99047612.983 3
  20171052.280   107788049.560 9
  24246878.280   129476977.992 4  24246890.620   100704365.229 6
  23800772.200   127273420.417 5  23800780.760    98990472.662 5
  23901917.640   127903991.799 6  23901926.360    99480929.163 6
 16  3 23 21  0 28.0000000  0 18G03G05G07G08G09G16G23G27G28G30R01R02
                                R08R10R11R13R20R21
  24816192.740   130409968.742 5  24816201.420   101618193.90145
  25175927.940   132300380.182 6  25175930.860   103091212.29245
  21045283.820   110593790.513 9  21045283.540    86176985.35448
  23408736.620   123013791.015 8  23408741.640    95854951.30546
  20184116.180   106068284.892 9  20184117.380    82650642.24249
  23147848.960   121642827.671 8  23147849.620    94786640.57246
  20945825.780   110071073.310 9  20945823.600    85769645.78148
  23231165.820   122080659.687 8  23231169.440    95127830.17046
  24726807.040   129940257.108 6  24726812.420   101252174.9884
  22677142.800   119169221.354 8  22677146.120    92859167.56346
  19707709.800   105349009.455 9  19707718.160    81938158.583 8
  20408177.700   108901976.942 9  20408185.100    84701578.681 8
  22999709.460   123162314.092 7  22999718.300    95792901.102 6
  23890591.980   127350290.261 7  23890603.420    99050279.804 3
  20171435.180   107790095.664 9
  24246283.780   129473803.368 4  24246296.140   100701896.090 6
  23800611.800   127272562.416 5  23800620.300    98989805.326 5
  23901357.720   127900995.624 6  23901366.460    99478598.810 6
 16  3 23 21  0 29.0000000  0 18G03G05G07G08G09G16G23G27G28G30R01R02
                                R08R10R11R13R20R21
  24816901.460   130413693.233 5  24816910.220   101621096.07145
  25175394.660   132297577.759 6  25175397.620   103089028.59944
  21045074.880   110592692.513 9  21045074.580    86176129.76949
  23408279.240   123011387.448 8  23408284.260    95853078.39646
  20184063.800   106068009.620 9  20184065.000    82650427.74249
  23148476.060   121646123.153 8  23148476.740    94789208.48745
  20946119.660   110072617.678 9  20946117.500    85770849.18548
  23230960.680   122079581.632 8  23230964.280    95126990.12446
  24726129.140   129936694.659 6  24726134.180   101249399.06441
  22676715.280   119166974.721 8  22676718.600    92857416.94247
  19708097.920   105351084.190 9  19708106.280    81939772.263 8
  20407720.820   108899538.906 9  20407728.200    84699682.429 8
  23000526.040   123166686.900 7  23000534.900    95796302.160 6
  23891235.160   127353718.762 7  23891246.580    99052946.422 3
  20171818.120   107792141.904 9
  24245689.220   129470628.750 4  24245701.640   100699426.955 6
  23800451.520   127271705.075 5  23800459.960    98989138.506 5
  23900797.840   127897999.611 6  23900806.580    99476268.585 6
 16  3 23 21  0 30.0000000  0 18G03G05G07G08G09G16G23G27G28G30R01R02
                                R08R10R11R13R20R21
  24817610.240   130417417.850 6  24817618.980   101623998.35845
  25174861.460   132294775.792 6  25174864.460   103086845.24345
  21044866.020   110591594.881 9  21044865.720    86175274.47148
  23407821.960   123008984.336 8  23407827.000    95851205.84346
  20184011.540   106067734.963 9  20184012.720    82650213.72349
  23149103.260   121649419.090 8  23149103.960    94791776.75045
  20946413.660   110074162.638 9  20946411.500    85772053.04948
  23230755.660   122078504.253 8  23230759.260    95126150.60546
  24725451.280   129933132.470 6  24725456.300   101246623.35343
  22676287.820   119164728.414 8  22676291.160    92855666.57747
  19708486.220   105353159.830 9  19708494.580    81941386.650 8
  20407264.080   108897101.691 9  20407271.460    84697786.819 8
  23001342.680   123171060.069 7  23001351.580    95799703.506 6
  23891878.340   127357147.308 7  23891889.760    99055613.066 3
  20172201.120   107794188.575 9
  24245094.800   129467454.508 4  24245107.220   100696958.106 6
  23800291.300   127270848.548 5  23800299.760    98988472.315 5
  23900238.040   127895004.057 6  23900246.780    99473938.713 6
 16  3 23 21  0 31.0000000  0 18G03G05G07G08G09G16G23G27G28G30R01R02
                                R08R10R11R13R20R21
  24818319.020   130421142.445 6  24818327.700   101626900.62644
  25174328.360   132291974.262 6  25174331.400   103084662.23645
  21044657.200   110590497.503 9  21044656.900    86174419.37248
  23407364.740   123006581.545 8  23407369.760    95849333.54446
  20183959.380   106067460.802 9  20183960.560    82650000.09449
  23149730.520   121652715.385 8  23149731.200    94794345.29146
  20946707.760   110075708.086 9  20946705.600    85773257.29048
  23230550.760   122077427.457 8  23230554.360    95125311.54946
  24724773.460   129929570.429 6  24724778.480   101243847.73643
  22675860.400   119162482.336 8  22675863.740    92853916.39047
  19708874.660   105355236.286 9  19708883.020    81943001.669 7
  20406807.480   108894665.167 9  20406814.860    84695891.745 8
  23002159.360   123175433.471 7  23002168.280    95803105.028 5
  23892521.520   127360575.768 7  23892532.900    99058279.639 2
  20172584.180   107796235.545 9
  24244500.460   129464280.486 4  24244512.840   100694489.424 6
  23800131.300   127269992.819 5  23800139.720    98987806.753 5
  23899678.280   127892008.788 6  23899687.060    99471609.060 5
 16  3 23 21  0 32.0000000  0 18G03G05G07G08G09G16G23G27G28G30R01R02
                                R08R10R11R13R20R21
  24819027.780   130424866.968 6  24819036.480   101629802.84745
  25173795.300   132289173.028 6  25173798.360   103082479.45344
  21044448.400   110589400.320 9  21044448.100    86173564.42648
  23406907.560   123004179.008 8  23406912.580    95847461.44046
  20183907.280   106067187.078 9  20183908.480    82649786.80049
  23150357.840   121656011.932 8  23150358.520    94796914.02745
  20947001.940   110077253.954 9  20946999.760    85774461.86348
  23230345.940   122076351.178 8  23230349.540    95124472.89346
  24724095.620   129926008.429 7  24724100.620   101241072.15042
  22675433.020   119160236.407 8  22675436.340    92852166.31847
  19709263.240   105357313.474 9  19709271.600    81944617.260 8
  20406350.980   108892229.278 9  20406358.380    84693997.167 8
  23002976.080   123179807.021 7  23002985.000    95806506.672 6
  23893164.680   127364004.112 7  23893176.060    99060946.132 3
  20172967.280   107798282.766 9
  24243906.100   129461106.626 5  24243918.500   100692020.872 6
  23799971.440   127269137.818 5  23799979.820    98987141.752 5
  23899118.600   127889013.793 6  23899127.380    99469279.619 5
 16  3 23 21  0 33.0000000  0 18G03G05G07G08G09G16G23G27G28G30R01R02
                                R08R10R11R13R20R21
  24819736.500   130428591.350 6  24819745.300   101632704.94945
  25173262.320   132286372.081 6  25173265.340   103080296.89744
  21044239.660   110588303.321 9  21044239.360    86172709.62148
  23406450.420   123001776.726 8  23406455.460    95845589.53646
  20183855.260   106066913.772 9  20183856.460    82649573.83449
  23150985.220   121659308.728 8  23150985.900    94799482.95545
  20947296.180   110078800.240 9  20947294.020    85775666.76248
  23230141.240   122075275.393 8  23230144.840    95123634.61746
  24723417.800   129922446.532 7  24723422.780   101238296.6514
  22675005.660   119157990.610 8  22675009.000    92850416.34247
  19709651.960   105359391.403 9  19709660.320    81946233.426 8
  20405894.640   108889794.041 9  20405902.000    84692103.091 8
  23003792.840   123184180.723 7  23003801.760    95809908.431 6
  23893807.760   127367432.309 7  23893819.200    99063612.503 3
  20173350.440   107800330.233 9
  24243311.740   129457932.891 5  24243324.180   100689552.408 6
  23799811.660   127268283.467 5  23799820.020    98986477.255 5
  23898558.980   127886019.038 6  23898567.740    99466950.367 5
 16  3 23 21  0 34.0000000  0 18G03G05G07G08G09G16G23G27G28G30R01R02
                                R08R10R11R13R20R21
  24820445.220   130432315.607 6  24820454.000   101635606.95745
  25172729.360   132283571.405 6  25172732.380   103078114.54345
  21044030.920   110587206.440 9  21044030.620    86171854.90748
  23405993.340   122999374.592 8  23405998.340    95843717.74946
  20183803.340   106066640.838 9  20183804.520    82649361.15949
  23151612.600   121662605.693 8  23151613.300    94802052.01445
  20947590.500   110080346.874 9  20947588.340    85776871.93048
  23229936.600   122074200.053 8  23229940.220    95122796.68546
  24722739.980   129918884.595 7  24722744.960   101235521.11242
  22674578.300   119155744.889 8  22674581.640    92848666.43047
  19710040.800   105361470.013 9  19710049.160    81947850.123 8
  20405438.380   108887359.411 9  20405445.740    84690209.497 8
  23004609.600   123188554.513 7  23004618.520    95813310.262 6
  23894450.840   127370860.260 7  23894462.260    99066278.696 3
  20173733.640   107802377.870 9
  24242717.460   129454759.288 5  24242729.860   100687084.048 6
  23799652.020   127267429.782 5  23799660.360    98985813.279 6
  23897999.300   127883024.409 6  23898008.120    99464621.216 6
 16  3 23 21  0 35.0000000  0 18G03G05G07G08G09G16G23G27G28G30R01R02
                                R08R10R11R13R20R21
  24821153.940   130436039.930 6  24821162.740   101638509.02844
  25172196.480   132280771.230 6  25172199.580   103075932.59945
  21043822.260   110586109.961 9  21043821.960    86171000.51048
  23405536.340   122996972.957 8  23405541.340    95841846.35446
  20183751.520   106066368.538 9  20183752.720    82649148.97349
  23152240.100   121665903.154 8  23152240.780    94804621.46545
  20947884.940   110081894.143 9  20947882.780    85778077.59248
  23229732.120   122073125.430 8  23229735.720    95121959.31846
  24722062.220   129915322.945 7  24722067.180   101232745.79043
  22674151.020   119153499.536 8  22674154.380    92846916.81247
  19710429.840   105363549.588 9  19710438.200    81949467.564 8
  20404982.300   108884925.651 9  20404989.660    84688316.575 8
  23005426.440   123192928.684 7  23005435.360    95816712.386 6
  23895093.960   127374288.292 7  23895105.320    99068944.947 3
  20174116.920   107804425.995 9
  24242123.260   129451586.098 5  24242135.640   100684616.018 6
  23799492.560   127266576.970 5  23799500.840    98985149.984 5
  23897439.760   127880030.291 6  23897448.600    99462292.461 5
 16  3 23 21  0 36.0000000  0 18G03G05G07G08G09G16G23G27G28G30R01R02
                                R08R10R11R13R20R21
  24821862.660   130439764.255 6  24821871.440   101641411.08644
  25171663.700   132277971.337 6  25171666.840   103073750.85246
  21043613.640   110585013.645 9  21043613.340    86170146.23648
  23405079.360   122994571.532 8  23405084.380    95839975.11746
  20183699.780   106066096.648 9  20183700.980    82648937.11249
  23152867.640   121669200.841 8  23152868.300    94807191.08145
  20948179.460   110083441.795 9  20948177.300    85779283.55648
  23229527.720   122072051.298 8  23229531.300    95121122.33246
  24721384.480   129911761.334 7  24721389.400   101229970.50744
  22673723.760   119151254.296 8  22673727.100    92845167.27247
  19710818.980   105365629.876 9  19710827.360    81951085.566 8
  20404526.320   108882492.519 9  20404533.700    84686424.136 8
  23006243.280   123197302.969 7  23006252.220    95820114.602 6
  23895737.020   127377716.153 7  23895748.380    99071611.065 3
  20174500.240   107806474.330 9
  24241529.040   129448413.012 5  24241541.440   100682148.062 6
  23799333.180   127265724.838 5  23799341.480    98984487.216 5
  23896880.260   127877036.395 6  23896889.100    99459963.878 5
 16  3 23 21  0 37.0000000  0 18G03G05G07G08G09G16G23G27G28G30R01R02
                                R08R10R11R13R20R21
  24822571.400   130443488.622 6  24822580.160   101644313.17845
  25171131.000   132275171.982 6  25171134.120   103071569.52245
  21043405.100   110583917.710 9  21043404.800    86169292.26248
  23404622.500   122992170.572 8  23404627.520    95838104.23746
  20183648.160   106065825.378 9  20183649.360    82648725.73349
  23153495.260   121672498.972 8  23153495.920    94809761.05546
  20948474.100   110084990.073 9  20948471.920    85780490.00648
  23229323.440   122070977.857 8  23229327.040    95120285.89546
  24720706.800   129908199.986 7  24720711.720   101227195.43744
  22673296.560   119149009.397 8  22673299.920    92843418.00346
  19711208.320   105367711.108 9  19711216.700    81952704.302 8
  20404070.520   108880060.208 9  20404077.880    84684532.345 8
  23007060.200   123201677.614 7  23007069.140    95823517.093 6
  23896380.100   127381144.070 7  23896391.440    99074277.229 3
  20174883.660   107808523.130 9
  24240934.880   129445240.252 5  24240947.280   100679680.364 6
  23799173.980   127264873.666 5  23799182.280    98983825.196 5
  23896320.840   127874042.954 6  23896329.700    99457635.650 5
 16  3 23 21  0 38.0000000  0 18G03G05G07G08G09G16G23G27G28G30R01R02
                                R08R10R11R13R20R21
  24823280.180   130447213.262 6  24823288.860   101647215.48544
  25170598.440   132272373.329 6  25170601.600   103069388.73944
  21043196.660   110582822.377 9  21043196.360    86168438.75849
  23404165.740   122989770.245 8  23404170.760    95836233.85546
  20183596.700   106065554.954 9  20183597.900    82648515.01749
  23154123.000   121675797.750 8  23154123.660    94812331.53346
  20948768.900   110086539.187 9  20948766.720    85781697.10548
  23229119.360   122069905.352 8  23229122.940    95119450.17946
  24720029.180   129904639.101 7  24720034.140   101224420.71144
  22672869.480   119146765.074 8  22672872.840    92841669.18647
  19711597.860   105369793.490 9  19711606.240    81954323.930 8
  20403614.920   108877628.948 9  20403622.260    84682641.363 8
  23007877.220   123206052.815 7  23007886.160    95826920.019 6
  23897023.220   127384572.237 7  23897034.540    99076943.590 3
  20175267.160   107810572.579 9
  24240340.800   129442068.117 5  24240353.260   100677213.148 6
  23799014.940   127264023.520 5  23799023.280    98983163.969 6
  23895761.580   127871050.198 6  23895770.440    99455307.959 5
 16  3 23 21  0 39.0000000  0 18G03G05G07G08G09G16G23G27G28G30R01R02
                                R08R10R11R13R20R21
  24823988.940   130450937.850 6  24823997.600   101650117.74644
  25170065.940   132269575.020 6  25170069.080   103067208.24945
  21042988.260   110581727.285 9  21042987.960    86167585.44048
  23403709.040   122987370.270 8  23403714.080    95834363.75346
  20183545.320   106065285.008 9  20183546.520    82648304.66749
  23154750.820   121679096.851 8  23154751.460    94814902.25945
  20949063.760   110088088.752 9  20949061.600    85782904.55948
  23228915.380   122068833.408 8  23228918.960    95118614.89446
  24719351.600   129901078.338 7  24719356.580   101221646.09743
  22672442.420   119144520.927 8  22672445.800    92839920.49747
  19711987.580   105371876.646 9  19711995.940    81955944.159 8
  20403159.420   108875198.383 9  20403166.760    84680750.925 8
  23008694.280   123210428.247 7  23008703.220    95830323.127 6
  23897666.320   127388000.336 6  23897677.640    99079609.895 3
  20175650.740   107812622.317 9
  24239746.820   129438896.158 5  24239759.260   100674746.071 6
  23798856.120   127263174.169 5  23798864.440    98982503.358 6
  23895202.380   127868057.699 6  23895211.200    99452980.464 5
 16  3 23 21  0 40.0000000  0 18G03G05G07G08G09G16G23G27G28G30R01R02
                                R08R10R11R13R20R21
  24824697.660   130454662.249 6  24824706.380   101653019.85344
  25169533.500   132266776.932 6  25169536.660   103065027.92845
  21042779.900   110580632.238 9  21042779.580    86166732.15848
  23403252.360   122984970.353 8  23403257.400    95832493.69246
  20183494.020   106065015.356 9  20183495.200    82648094.54949
  23155378.640   121682396.067 8  23155379.280    94817473.07145
  20949358.700   110089638.612 9  20949356.520    85784112.23848
  23228711.460   122067761.823 8  23228715.060    95117779.89446
  24718674.000   129897517.498 7  24718679.000   101218871.43443
  22672015.380   119142276.790 8  22672018.780    92838171.82047
  19712377.380   105373960.401 9  19712385.760    81957564.857 8
  20402704.040   108872768.342 9  20402711.360    84678860.896 8
  23009511.360   123214803.711 7  23009520.280    95833726.257 6
  23898309.360   127391428.165 6  23898320.640    99082275.986 2
  20176034.340   107814672.156 9
  24239152.780   129435724.250 5  24239165.280   100672279.033 6
  23798697.440   127262325.366 5  23798705.700    98981843.176 6
  23894643.180   127865065.302 6  23894651.980    99450653.040 5
 16  3 23 21  0 41.0000000  0 18G03G05G07G08G09G16G23G27G28G30R01R02
                                R08R10R11R13R20R21
  24825406.360   130458386.427 6  24825415.060   101655921.79544
  25169001.080   132263979.027 6  25169004.240   103062847.73545
  21042571.540   110579537.273 9  21042571.220    86165878.93948
  23402795.700   122982570.607 8  23402800.780    95830623.76646
  20183442.760   106064746.012 9  20183443.960    82647884.66949
  23156006.480   121685695.425 8  23156007.120    94820044.00145
  20949653.700   110091188.771 9  20949651.520    85785320.15448
  23228507.620   122066690.647 8  23228511.220    95116945.21447
  24717996.400   129893956.604 7  24718001.440   101216096.71843
  22671588.320   119140032.698 8  22671591.760    92836423.17647
  19712767.320   105376044.787 9  19712775.680    81959186.042 8
  20402248.740   108870338.838 9  20402256.080    84676971.280 8
  23010328.440   123219179.233 7  23010337.360    95837129.439 6
  23898952.340   127394855.692 6  23898963.580    99084941.847 3
  20176417.980   107816722.127 9
  24238558.800   129432552.337 5  24238571.280   100669811.991 6
  23798538.780   127261477.217 5  23798547.100    98981183.503 5
  23894084.000   127862073.046 6  23894092.800    99448325.721 5
 16  3 23 21  0 42.0000000  0 18G03G05G07G08G09G16G23G27G28G30R01R02
                                R08R10R11R13R20R21
  24826115.060   130462110.599 6  24826123.700   101658823.74843
  25168468.720   132261181.462 6  25168471.900   103060667.80644
  21042363.220   110578442.549 9  21042362.900    86165025.90748
  23402339.120   122980171.174 8  23402344.200    95828754.07646
  20183391.600   106064477.167 9  20183392.800    82647675.17749
  23156634.380   121688995.083 8  23156635.040    94822615.16746
  20949948.780   110092739.390 9  20949946.580    85786528.42748
  23228303.880   122065620.017 8  23228307.480    95116110.95346
  24717318.820   129890395.860 7  24717323.860   101213322.14944
  22671161.320   119137788.804 8  22671164.760    92834674.69347
  19713157.380   105378129.970 9  19713165.760    81960807.851 8
  20401793.580   108867910.012 9  20401800.900    84675082.195 8
  23011145.580   123223554.925 7  23011154.440    95840532.746 5
  23899595.340   127398283.124 7  23899606.520    99087607.621 2
  20176801.660   107818772.383 9
  24237964.860   129429380.637 5  24237977.340   100667345.114 6
  23798380.220   127260629.764 5  23798388.620    98980524.375 5
  23893524.860   127859081.093 6  23893533.660    99445998.647 5
 16  3 23 21  0 43.0000000  0 18G03G05G07G08G09G16G23G27G28G30R01R02
                                R08R10R11R13R20R21
  24826823.720   130465834.565 6  24826832.320   101661725.53343
  25167936.420   132258384.175 6  25167939.600   103058488.09145
  21042154.920   110577347.946 9  21042154.620    86164172.97448
  23401882.580   122977771.937 8  23401887.660    95826884.54346
  20183340.500   106064208.676 9  20183341.700    82647465.96649
  23157262.340   121692294.946 8  23157262.980    94825186.48746
  20950243.920   110094290.382 9  20950241.720    85787736.99048
  23228100.240   122064549.835 8  23228103.820    95115277.04546
  24716641.240   129886835.077 7  24716646.260   101210547.52344
  22670734.340   119135544.995 8  22670737.780    92832926.27147
  19713547.580   105380215.837 9  19713555.980    81962430.192 8
  20401338.520   108865481.751 9  20401345.840    84673193.547 8
  23011962.700   123227930.675 7  23011971.560    95843936.101 5
  23900238.300   127401710.356 6  23900249.440    99090273.253 2
  20177185.380   107820822.818 9
  24237370.940   129426209.076 5  24237383.400   100664878.348 6
  23798221.880   127259782.934 5  23798230.260    98979865.725 5
  23892965.760   127856089.372 6  23892974.560    99443671.757 5
 16  3 23 21  0 44.0000000  0 18G03G05G07G08G09G16G23G27G28G30R01R02
                                R08R10R11R13R20R21
  24827532.360   130469558.464 7  24827540.940   101664627.26244
  25167404.180   132255587.187 6  25167407.360   103056308.61945
  21041946.660   110576253.525 9  21041946.360    86163320.17448
  23401426.060   122975372.916 8  23401431.120    95825015.17646
  20183289.480   106063940.609 9  20183290.700    82647257.08249
  23157890.340   121695595.032 8  23157890.960    94827757.98345
  20950539.160   110095841.766 9  20950536.960    85788945.86048
  23227896.700   122063480.159 8  23227900.260    95114443.52746
  24715963.640   129883274.341 7  24715968.760   101207772.93244
  22670307.400   119133301.329 8  22670310.820    92831177.96246
  19713937.920   105382302.436 9  19713946.320    81964053.102 8
  20400883.580   108863054.088 9  20400890.880    84671305.365 8
  23012779.860   123232306.556 7  23012788.700    95847339.560 6
  23900881.200   127405137.383 6  23900892.280    99092938.722 3
  20177569.120   107822873.494 9
  24236777.020   129423037.646 5  24236789.520   100662411.688 6
  23798063.660   127258936.797 5  23798072.020    98979207.614 5
  23892406.740   127853097.863 6  23892415.520    99441345.028 5
 16  3 23 21  0 45.0000000  0 18G03G05G07G08G09G16G23G27G28G30R01R02
                                R08R10R11R13R20R21
  24828241.020   130473282.453 6  24828249.600   101667529.07044
  25166872.040   132252790.668 6  25166875.220   103054129.52345
  21041738.460   110575159.479 9  21041738.160    86162467.67348
  23400969.640   122972974.353 8  23400974.700    95823146.16946
  20183238.600   106063673.162 9  20183239.800    82647048.68449
  23158518.400   121698895.578 8  23158519.040    94830329.83245
  20950834.500   110097393.762 9  20950832.300    85790155.20648
  23227693.280   122062411.180 8  23227696.840    95113610.55646
  24715286.100   129879713.881 7  24715291.240   101204998.54443
  22669880.500   119131057.989 8  22669883.940    92829429.90447
  19714328.420   105384389.970 9  19714336.840    81965676.740 8
  20400428.780   108860627.290 9  20400436.100    84669417.857 8
  23013597.080   123236682.826 7  23013605.900    95850743.324 6
  23901524.120   127408564.490 6  23901535.200    99095604.258 2
  20177952.960   107824924.597 9
  24236183.200   129419866.592 5  24236195.680   100659945.313 6
  23797905.580   127258091.528 5  23797913.940    98978550.183 6
  23891847.740   127850106.741 6  23891856.540    99439018.604 5
 16  3 23 21  0 46.0000000  0 18G03G05G07G08G09G16G23G27G28G30R01R02
                                R08R10R11R13R20R21
  24828949.680   130477006.371 6  24828958.200   101670430.83044
  25166339.940   132249994.516 6  25166343.160   103051950.70945
  21041530.320   110574065.656 9  21041530.020    86161615.34348
  23400513.280   122970576.075 8  23400518.340    95821277.38246
  20183187.780   106063406.172 9  20183189.000    82646840.63849
  23159146.540   121702196.394 8  23159147.160    94832901.89345
  20951129.920   110098946.199 9  20951127.720    85791364.89748
  23227489.960   122061342.728 8  23227493.520    95112777.99346
  24714608.600   129876153.519 7  24714613.660   101202224.26044
  22669453.640   119128814.827 8  22669457.080    92827681.99046
  19714719.080   105386478.272 9  19714727.480    81967300.970 8
  20399974.140   108858201.203 9  20399981.460    84667530.899 8
  23014414.320   123241059.286 8  23014423.160    95854147.231 6
