$GPGGA,205943.00,3742.85069820,N,12213.32506571,E,1,07,1.34,-26.4,M,11.3,M,,*42
$GPRMC,205943.00,A,3742.85069820,N,12213.32506571,E,,,23032016,,,,*35
$GPGSV,2,1,7,7,57,295,54,8,23,120,48,9,83,17,54,16,25,42,48*7E
$GPGSV,2,2,7,23,56,116,54,27,24,86,48,30,31,270,48,,,,*42
$GPGSA,M,3,7,8,9,16,23,27,30,,,,,,2.23,1.34,1.79*32
$GPGGA,205944.00,3742.85068391,N,12213.32506554,E,1,07,1.34,-26.5,M,11.3,M,,*43
$GPRMC,205944.00,A,3742.85068391,N,12213.32506554,E,,,23032016,,,,*35
$GPGSV,2,1,7,7,57,295,54,8,23,120,48,9,83,17,54,16,25,42,48*7E
$GPGSV,2,2,7,23,56,116,54,27,24,86,48,30,31,270,48,,,,*42
$GPGSA,M,3,7,8,9,16,23,27,30,,,,,,2.23,1.34,1.79*32
$GPGGA,205945.00,3742.85068488,N,12213.32507298,E,1,07,1.34,-26.5,M,11.3,M,,*4B
$GPRMC,205945.00,A,3742.85068488,N,12213.32507298,E,,,23032016,,,,*3D
$GPGSV,2,1,7,7,57,295,54,8,23,120,48,9,83,17,54,16,25,42,48*7E
$GPGSV,2,2,7,23,56,116,54,27,24,86,48,30,31,270,48,,,,*42
$GPGSA,M,3,7,8,9,16,23,27,30,,,,,,2.23,1.34,1.79*32
$GPGGA,205946.00,3742.85068548,N,12213.32506237,E,1,07,1.34,-26.5,M,11.3,M,,*41
$GPRMC,205946.00,A,3742.85068548,N,12213.32506237,E,,,23032016,,,,*37
$GPGSV,2,1,7,7,57,295,54,8,23,120,48,9,83,17,54,16,25,42,48*7E
$GPGSV,2,2,7,23,56,116,54,27,24,86,48,30,31,270,48,,,,*42
$GPGSA,M,3,7,8,9,16,23,27,30,,,,,,2.23,1.34,1.79*32
$GPGGA,205947.00,3742.85068285,N,12213.32505823,E,1,07,1.34,-26.5,M,11.3,M,,*4A
$GPRMC,205947.00,A,3742.85068285,N,12213.32505823,E,,,23032016,,,,*3C
$GPGSV,2,1,7,7,57,295,54,8,23,120,48,9,83,17,54,16,25,42,48*7E
$GPGSV,2,2,7,23,56,116,54,27,24,86,48,30,31,270,48,,,,*42
$GPGSA,M,3,7,8,9,16,23,27,30,,,,,,2.23,1.34,1.79*32
$GPGGA,205948.00,3742.85069224,N,12213.32506253,E,1,07,1.34,-26.5,M,11.3,M,,*41
$GPRMC,205948.00,A,3742.85069224,N,12213.32506253,E,,,23032016,,,,*37
$GPGSV,2,1,7,7,57,295,54,8,23,120,48,9,83,17,54,16,25,42,48*7E
$GPGSV,2,2,7,23,56,116,54,27,24,86,48,30,31,270,48,,,,*42
$GPGSA,M,3,7,8,9,16,23,27,30,,,,,,2.23,1.34,1.79*32
$GPGGA,205949.00,3742.85068652,N,12213.32506509,E,1,07,1.34,-26.5,M,11.3,M,,*4C
$GPRMC,205949.00,A,3742.85068652,N,12213.32506509,E,,,23032016,,,,*3A
$GPGSV,2,1,7,7,57,295,54,8,23,120,48,9,83,17,54,16,25,42,48*7E
$GPGSV,2,2,7,23,56,116,54,27,24,86,48,30,31,270,48,,,,*42
$GPGSA,M,3,7,8,9,16,23,27,30,,,,,,2.23,1.34,1.79*32
$GPGGA,205950.00,3742.85068366,N,12213.32506641,E,1,07,1.34,-26.6,M,11.3,M,,*4A
$GPRMC,205950.00,A,3742.85068366,N,12213.32506641,E,,,23032016,,,,*3F
$GPGSV,2,1,7,7,57,295,54,8,23,120,48,9,83,17,54,16,25,42,48*7E
$GPGSV,2,2,7,23,56,116,54,27,24,86,48,30,31,270,48,,,,*42
$GPGSA,M,3,7,8,9,16,23,27,30,,,,,,2.23,1.34,1.79*32
$GPGGA,205951.00,3742.85068722,N,12213.32506864,E,1,07,1.34,-26.5,M,11.3,M,,*45
$GPRMC,205951.00,A,3742.85068722,N,12213.32506864,E,,,23032016,,,,*33
$GPGSV,2,1,7,7,57,295,54,8,23,120,48,9,83,17,54,16,25,42,48*7E
$GPGSV,2,2,7,23,56,116,54,27,24,86,48,30,31,270,48,,,,*42
$GPGSA,M,3,7,8,9,16,23,27,30,,,,,,2.23,1.34,1.79*32
$GPGGA,205952.00,3742.85069244,N,12213.32506685,E,1,07,1.34,-26.5,M,11.3,M,,*43
$GPRMC,205952.00,A,3742.85069244,N,12213.32506685,E,,,23032016,,,,*35
$GPGSV,2,1,7,7,57,295,54,8,23,120,48,9,83,17,54,16,25,42,48*7E
$GPGSV,2,2,7,23,56,116,54,27,24,86,48,30,31,270,48,,,,*42
$GPGSA,M,3,7,8,9,16,23,27,30,,,,,,2.23,1.34,1.79*32
$GPGGA,205953.00,3742.85068892,N,12213.32506453,E,1,07,1.34,-26.6,M,11.3,M,,*48
$GPRMC,205953.00,A,3742.85068892,N,12213.32506453,E,,,23032016,,,,*3D
$GPGSV,2,1,7,7,57,295,54,8,23,120,48,9,83,17,54,16,25,42,48*7E
$GPGSV,2,2,7,23,56,116,54,27,24,86,48,30,31,270,48,,,,*42
$GPGSA,M,3,7,8,9,16,23,27,30,,,,,,2.23,1.34,1.79*32
$GPGGA,205954.00,3742.85068401,N,12213.32506665,E,1,07,1.34,-26.6,M,11.3,M,,*4E
$GPRMC,205954.00,A,3742.85068401,N,12213.32506665,E,,,23032016,,,,*3B
$GPGSV,2,1,7,7,57,295,54,8,23,120,48,9,83,18,54,16,25,42,48*71
$GPGSV,2,2,7,23,56,116,54,27,24,86,48,30,31,270,48,,,,*42
$GPGSA,M,3,7,8,9,16,23,27,30,,,,,,2.23,1.34,1.79*32
$GPGGA,205955.00,3742.85068329,N,12213.32506279,E,1,07,1.34,-26.6,M,11.3,M,,*4B
$GPRMC,205955.00,A,3742.85068329,N,12213.32506279,E,,,23032016,,,,*3E
$GPGSV,2,1,7,7,57,295,54,8,23,120,48,9,83,18,54,16,25,42,48*71
$GPGSV,2,2,7,23,56,116,54,27,24,86,48,30,31,270,48,,,,*42
$GPGSA,M,3,7,8,9,16,23,27,30,,,,,,2.23,1.34,1.79*32
$GPGGA,205956.00,3742.85069971,N,12213.32506843,E,1,07,1.34,-26.6,M,11.3,M,,*4D
$GPRMC,205956.00,A,3742.85069971,N,12213.32506843,E,,,23032016,,,,*38
$GPGSV,2,1,7,7,57,295,54,8,23,120,48,9,83,18,54,16,25,42,48*71
$GPGSV,2,2,7,23,56,116,54,27,24,86,48,30,31,270,48,,,,*42
$GPGSA,M,3,7,8,9,16,23,27,30,,,,,,2.23,1.34,1.79*32
$GPGGA,205957.00,3742.85069079,N,12213.32506776,E,1,07,1.34,-26.6,M,11.3,M,,*44
$GPRMC,205957.00,A,3742.85069079,N,12213.32506776,E,,,23032016,,,,*31
$GPGSV,2,1,7,7,57,295,54,8,23,120,48,9,83,18,54,16,25,42,48*71
$GPGSV,2,2,7,23,56,116,54,27,24,86,48,30,31,270,48,,,,*42
$GPGSA,M,3,7,8,9,16,23,27,30,,,,,,2.23,1.34,1.79*32
$GPGGA,205958.00,3742.85069535,N,12213.32507103,E,1,07,1.34,-26.6,M,11.3,M,,*43
$GPRMC,205958.00,A,3742.85069535,N,12213.32507103,E,,,23032016,,,,*36
$GPGSV,2,1,7,7,57,295,54,8,23,120,48,9,83,18,54,16,25,42,48*71
$GPGSV,2,2,7,23,56,116,54,27,24,86,48,30,31,270,48,,,,*42
$GPGSA,M,3,7,8,9,16,23,27,30,,,,,,2.23,1.34,1.79*32
$GPGGA,205959.00,3742.85069105,N,12213.32506999,E,1,07,1.34,-26.6,M,11.3,M,,*4F
$GPRMC,205959.00,A,3742.85069105,N,12213.32506999,E,,,23032016,,,,*3A
$GPGSV,2,1,7,7,57,295,54,8,23,120,48,9,83,18,54,16,25,42,48*71
$GPGSV,2,2,7,23,56,116,54,27,24,86,48,30,31,270,48,,,,*42
$GPGSA,M,3,7,8,9,16,23,27,30,,,,,,2.23,1.34,1.79*32
$GPGGA,210000.00,3742.85069338,N,12213.32506796,E,1,07,1.34,-26.6,M,11.3,M,,*43
$GPRMC,210000.00,A,3742.85069338,N,12213.32506796,E,,,23032016,,,,*36
$GPGSV,2,1,7,7,57,295,54,8,23,120,48,9,83,18,54,16,25,42,48*71
$GPGSV,2,2,7,23,56,116,54,27,24,86,48,30,31,270,48,,,,*42
$GPGSA,M,3,7,8,9,16,23,27,30,,,,,,2.23,1.34,1.79*32
$GPGGA,210001.00,3742.85069243,N,12213.32507050,E,1,07,1.34,-26.6,M,11.3,M,,*43
$GPRMC,210001.00,A,3742.85069243,N,12213.32507050,E,,,23032016,,,,*36
$GPGSV,2,1,7,7,57,295,54,8,23,120,48,9,83,18,54,16,25,42,48*71
$GPGSV,2,2,7,23,56,116,54,27,24,86,48,30,31,270,48,,,,*42
$GPGSA,M,3,7,8,9,16,23,27,30,,,,,,2.23,1.34,1.79*32
$GPGGA,210002.00,3742.85070032,N,12213.32507754,E,1,07,1.34,-26.6,M,11.3,M,,*4F
$GPRMC,210002.00,A,3742.85070032,N,12213.32507754,E,,,23032016,,,,*3A
$GPGSV,2,1,7,7,57,295,54,8,23,120,48,9,83,18,54,16,25,42,48*71
$GPGSV,2,2,7,23,56,116,54,27,24,86,48,30,31,270,48,,,,*42
$GPGSA,M,3,7,8,9,16,23,27,30,,,,,,2.23,1.34,1.79*32
$GPGGA,210003.00,3742.85070047,N,12213.32507200,E,1,07,1.34,-26.6,M,11.3,M,,*48
$GPRMC,210003.00,A,3742.85070047,N,12213.32507200,E,,,23032016,,,,*3D
$GPGSV,2,1,7,7,57,295,54,8,23,120,48,9,83,18,54,16,25,42,48*71
$GPGSV,2,2,7,23,56,116,54,27,24,86,48,30,31,270,48,,,,*42
$GPGSA,M,3,7,8,9,16,23,27,30,,,,,,2.23,1.34,1.79*32
$GPGGA,210004.00,3742.85070648,N,12213.32508151,E,1,07,1.34,-26.6,M,11.3,M,,*4E
$GPRMC,210004.00,A,3742.85070648,N,12213.32508151,E,,,23032016,,,,*3B
$GPGSV,2,1,7,7,57,295,54,8,23,120,48,9,83,18,54,16,25,42,48*71
$GPGSV,2,2,7,23,56,116,54,27,24,86,48,30,31,270,48,,,,*42
$GPGSA,M,3,7,8,9,16,23,27,30,,,,,,2.23,1.34,1.79*32
$GPGGA,210005.00,3742.85070726,N,12213.32507647,E,1,07,1.34,-26.6,M,11.3,M,,*49
$GPRMC,210005.00,A,3742.85070726,N,12213.32507647,E,,,23032016,,,,*3C
$GPGSV,2,1,7,7,57,295,54,8,23,120,48,9,83,18,54,16,25,42,48*71
$GPGSV,2,2,7,23,56,116,54,27,24,86,48,30,31,270,48,,,,*42
$GPGSA,M,3,7,8,9,16,23,27,30,,,,,,2.23,1.34,1.79*32
$GPGGA,210006.00,3742.85072243,N,12213.32508343,E,1,07,1.34,-26.6,M,11.3,M,,*40
$GPRMC,210006.00,A,3742.85072243,N,12213.32508343,E,,,23032016,,,,*35
$GPGSV,2,1,7,7,57,295,54,8,23,120,48,9,83,18,54,16,25,42,48*71
$GPGSV,2,2,7,23,56,116,54,27,24,86,48,30,31,270,48,,,,*42
$GPGSA,M,3,7,8,9,16,23,27,30,,,,,,2.24,1.34,1.79*35
$GPGGA,210007.00,3742.85071219,N,12213.32508413,E,1,07,1.34,-26.6,M,11.3,M,,*4F
$GPRMC,210007.00,A,3742.85071219,N,12213.32508413,E,,,23032016,,,,*3A
$GPGSV,2,1,7,7,57,295,54,8,23,120,48,9,83,18,54,16,25,42,48*71
$GPGSV,2,2,7,23,56,116,54,27,24,86,48,30,31,270,48,,,,*42
$GPGSA,M,3,7,8,9,16,23,27,30,,,,,,2.24,1.34,1.79*35
$GPGGA,210008.00,3742.85072377,N,12213.32508278,E,1,07,1.34,-26.6,M,11.3,M,,*41
$GPRMC,210008.00,A,3742.85072377,N,12213.32508278,E,,,23032016,,,,*34
$GPGSV,2,1,7,7,57,295,54,8,23,120,48,9,83,18,54,16,25,42,48*71
$GPGSV,2,2,7,23,56,116,54,27,24,86,48,30,31,270,48,,,,*42
$GPGSA,M,3,7,8,9,16,23,27,30,,,,,,2.24,1.34,1.79*35
$GPGGA,210009.00,3742.85072001,N,12213.32508001,E,1,07,1.34,-26.6,M,11.3,M,,*4E
$GPRMC,210009.00,A,3742.85072001,N,12213.32508001,E,,,23032016,,,,*3B
$GPGSV,2,1,7,7,57,295,54,8,23,119,48,9,83,18,54,16,25,42,48*7B
$GPGSV,2,2,7,23,56,116,54,27,24,86,48,30,31,270,48,,,,*42
$GPGSA,M,3,7,8,9,16,23,27,30,,,,,,2.24,1.34,1.79*35
$GPGGA,210010.00,3742.85071394,N,12213.32508672,E,1,07,1.34,-26.6,M,11.3,M,,*48
$GPRMC,210010.00,A,3742.85071394,N,12213.32508672,E,,,23032016,,,,*3D
$GPGSV,2,1,7,7,57,296,54,8,23,119,48,9,83,18,54,16,25,42,48*78
$GPGSV,2,2,7,23,56,116,54,27,24,86,48,30,31,270,48,,,,*42
$GPGSA,M,3,7,8,9,16,23,27,30,,,,,,2.24,1.34,1.79*35
$GPGGA,210011.00,3742.85072586,N,12213.32509755,E,1,07,1.34,-26.6,M,11.3,M,,*4A
$GPRMC,210011.00,A,3742.85072586,N,12213.32509755,E,,,23032016,,,,*3F
$GPGSV,2,1,7,7,57,296,54,8,23,119,48,9,83,18,54,16,25,42,48*78
$GPGSV,2,2,7,23,56,116,54,27,24,86,48,30,31,270,48,,,,*42
$GPGSA,M,3,7,8,9,16,23,27,30,,,,,,2.24,1.34,1.79*35
$GPGGA,210012.00,3742.85072716,N,12213.32509546,E,1,07,1.34,-26.6,M,11.3,M,,*42
$GPRMC,210012.00,A,3742.85072716,N,12213.32509546,E,,,23032016,,,,*37
$GPGSV,2,1,7,7,57,296,54,8,23,119,48,9,83,18,54,16,25,42,48*78
$GPGSV,2,2,7,23,56,116,54,27,24,86,48,30,31,270,48,,,,*42
$GPGSA,M,3,7,8,9,16,23,27,30,,,,,,2.24,1.34,1.79*35
$GPGGA,210013.00,3742.85072585,N,12213.32509452,E,1,07,1.34,-26.6,M,11.3,M,,*4F
$GPRMC,210013.00,A,3742.85072585,N,12213.32509452,E,,,23032016,,,,*3A
$GPGSV,2,1,7,7,57,296,54,8,23,119,48,9,83,19,54,16,25,42,48*79
$GPGSV,2,2,7,23,56,116,54,27,24,86,48,30,31,270,48,,,,*42
$GPGSA,M,3,7,8,9,16,23,27,30,,,,,,2.24,1.34,1.79*35
$GPGGA,210014.00,3742.85072816,N,12213.32509911,E,1,07,1.34,-26.6,M,11.3,M,,*45
$GPRMC,210014.00,A,3742.85072816,N,12213.32509911,E,,,23032016,,,,*30
$GPGSV,2,1,7,7,57,296,54,8,23,119,48,9,83,19,54,16,25,42,48*79
$GPGSV,2,2,7,23,56,116,54,27,24,86,48,30,31,270,48,,,,*42
$GPGSA,M,3,7,8,9,16,23,27,30,,,,,,2.24,1.34,1.79*35
$GPGGA,210015.00,3742.85073630,N,12213.32510117,E,1,07,1.34,-26.6,M,11.3,M,,*49
$GPRMC,210015.00,A,3742.85073630,N,12213.32510117,E,,,23032016,,,,*3C
$GPGSV,2,1,7,7,57,296,54,8,23,119,48,9,83,19,54,16,25,42,48*79
$GPGSV,2,2,7,23,56,116,54,27,24,86,48,30,31,270,48,,,,*42
$GPGSA,M,3,7,8,9,16,23,27,30,,,,,,2.24,1.34,1.79*35
$GPGGA,210016.00,3742.85072188,N,12213.32509909,E,1,07,1.34,-26.6,M,11.3,M,,*40
$GPRMC,210016.00,A,3742.85072188,N,12213.32509909,E,,,23032016,,,,*35
$GPGSV,2,1,7,7,57,296,54,8,23,119,48,9,83,19,54,16,25,42,48*79
$GPGSV,2,2,7,23,56,116,54,27,24,86,48,30,31,270,48,,,,*42
$GPGSA,M,3,7,8,9,16,23,27,30,,,,,,2.24,1.34,1.79*35
$GPGGA,210017.00,3742.85072849,N,12213.32510755,E,1,07,1.34,-26.6,M,11.3,M,,*4A
$GPRMC,210017.00,A,3742.85072849,N,12213.32510755,E,,,23032016,,,,*3F
$GPGSV,2,1,7,7,57,296,54,8,23,119,48,9,83,19,54,16,25,42,48*79
$GPGSV,2,2,7,23,56,116,54,27,24,86,48,30,32,270,48,,,,*41
$GPGSA,M,3,7,8,9,16,23,27,30,,,,,,2.24,1.34,1.79*35
$GPGGA,210018.00,3742.85072655,N,12213.32511488,E,1,07,1.34,-26.6,M,11.3,M,,*44
$GPRMC,210018.00,A,3742.85072655,N,12213.32511488,E,,,23032016,,,,*31
$GPGSV,2,1,7,7,57,296,54,8,23,119,48,9,83,19,54,16,25,42,48*79
$GPGSV,2,2,7,23,56,116,54,27,24,86,48,30,32,270,48,,,,*41
$GPGSA,M,3,7,8,9,16,23,27,30,,,,,,2.24,1.34,1.79*35
$GPGGA,210019.00,3742.85072201,N,12213.32511965,E,1,07,1.34,-26.6,M,11.3,M,,*4E
$GPRMC,210019.00,A,3742.85072201,N,12213.32511965,E,,,23032016,,,,*3B
$GPGSV,2,1,7,7,57,296,54,8,23,119,48,9,83,19,54,16,25,42,48*79
$GPGSV,2,2,7,23,56,116,54,27,24,86,48,30,32,270,48,,,,*41
$GPGSA,M,3,7,8,9,16,23,27,30,,,,,,2.24,1.34,1.79*35
$GPGGA,210020.00,3742.85072647,N,12213.32512328,E,1,07,1.34,-26.6,M,11.3,M,,*42
$GPRMC,210020.00,A,3742.85072647,N,12213.32512328,E,,,23032016,,,,*37
$GPGSV,2,1,7,7,57,296,54,8,23,119,48,9,83,19,54,16,25,42,48*79
$GPGSV,2,2,7,23,56,116,54,27,24,86,48,30,32,270,48,,,,*41
$GPGSA,M,3,7,8,9,16,23,27,30,,,,,,2.24,1.34,1.79*35
$GPGGA,210021.00,3742.85073327,N,12213.32512801,E,1,07,1.34,-26.6,M,11.3,M,,*41
$GPRMC,210021.00,A,3742.85073327,N,12213.32512801,E,,,23032016,,,,*34
$GPGSV,2,1,7,7,57,296,54,8,23,119,48,9,83,19,54,16,25,42,48*79
$GPGSV,2,2,7,23,56,116,54,27,24,86,48,30,32,270,48,,,,*41
$GPGSA,M,3,7,8,9,16,23,27,30,,,,,,2.24,1.34,1.79*35
$GPGGA,210022.00,3742.85071869,N,12213.32513532,E,1,07,1.34,-26.5,M,11.3,M,,*4E
$GPRMC,210022.00,A,3742.85071869,N,12213.32513532,E,,,23032016,,,,*38
$GPGSV,2,1,7,7,57,296,54,8,23,119,48,9,83,19,54,16,25,42,48*79
$GPGSV,2,2,7,23,56,116,54,27,24,85,48,30,32,270,48,,,,*42
$GPGSA,M,3,7,8,9,16,23,27,30,,,,,,2.24,1.34,1.79*35
$GPGGA,210023.00,3742.85071846,N,12213.32513244,E,1,07,1.34,-26.6,M,11.3,M,,*47
$GPRMC,210023.00,A,3742.85071846,N,12213.32513244,E,,,23032016,,,,*32
$GPGSV,2,1,7,7,57,296,54,8,23,119,48,9,83,19,54,16,25,42,48*79
$GPGSV,2,2,7,23,56,116,54,27,24,85,48,30,32,270,48,,,,*42
$GPGSA,M,3,7,8,9,16,23,27,30,,,,,,2.24,1.34,1.79*35
$GPGGA,210024.00,3742.85072216,N,12213.32513832,E,1,07,1.34,-26.6,M,11.3,M,,*47
$GPRMC,210024.00,A,3742.85072216,N,12213.32513832,E,,,23032016,,,,*32
$GPGSV,2,1,7,7,57,296,54,8,23,119,48,9,83,19,54,16,25,42,48*79
$GPGSV,2,2,7,23,56,116,54,27,24,85,48,30,32,270,48,,,,*42
$GPGSA,M,3,7,8,9,16,23,27,30,,,,,,2.24,1.34,1.79*35
$GPGGA,210025.00,3742.85072928,N,12213.32513864,E,1,07,1.34,-26.6,M,11.3,M,,*43
$GPRMC,210025.00,A,3742.85072928,N,12213.32513864,E,,,23032016,,,,*36
$GPGSV,2,1,7,7,57,296,54,8,23,119,48,9,83,19,54,16,25,42,48*79
$GPGSV,2,2,7,23,56,116,54,27,24,85,48,30,32,270,48,,,,*42
$GPGSA,M,3,7,8,9,16,23,27,30,,,,,,2.24,1.34,1.79*35
$GPGGA,210026.00,3742.85072714,N,12213.32514104,E,1,07,1.34,-26.5,M,11.3,M,,*4A
$GPRMC,210026.00,A,3742.85072714,N,12213.32514104,E,,,23032016,,,,*3C
$GPGSV,2,1,7,7,57,296,54,8,23,119,48,9,83,19,54,16,25,42,48*79
$GPGSV,2,2,7,23,56,116,54,27,24,85,48,30,32,270,48,,,,*42
$GPGSA,M,3,7,8,9,16,23,27,30,,,,,,2.24,1.34,1.79*35
$GPGGA,210027.00,3742.85073447,N,12213.32514036,E,1,07,1.34,-26.5,M,11.3,M,,*4F
$GPRMC,210027.00,A,3742.85073447,N,12213.32514036,E,,,23032016,,,,*39
$GPGSV,2,1,7,7,57,296,54,8,23,119,48,9,83,19,54,16,25,42,48*79
$GPGSV,2,2,7,23,56,116,54,27,24,85,48,30,32,270,48,,,,*42
$GPGSA,M,3,7,8,9,16,23,27,30,,,,,,2.24,1.34,1.79*35
$GPGGA,210028.00,3742.85074029,N,12213.32514616,E,1,07,1.34,-26.5,M,11.3,M,,*4F
$GPRMC,210028.00,A,3742.85074029,N,12213.32514616,E,,,23032016,,,,*39
$GPGSV,2,1,7,7,57,296,54,8,23,119,48,9,83,19,54,16,25,42,48*79
$GPGSV,2,2,7,23,56,116,54,27,24,85,48,30,32,270,48,,,,*42
$GPGSA,M,3,7,8,9,16,23,27,30,,,,,,2.24,1.34,1.79*35
$GPGGA,210029.00,3742.85073900,N,12213.32514368,E,1,07,1.34,-26.5,M,11.3,M,,*47
$GPRMC,210029.00,A,3742.85073900,N,12213.32514368,E,,,23032016,,,,*31
$GPGSV,2,1,7,7,57,296,54,8,23,119,48,9,83,19,54,16,25,42,48*79
$GPGSV,2,2,7,23,56,116,54,27,24,85,48,30,32,270,48,,,,*42
$GPGSA,M,3,7,8,9,16,23,27,30,,,,,,2.24,1.34,1.79*35
$GPGGA,210030.00,3742.85073428,N,12213.32514691,E,1,07,1.34,-26.5,M,11.3,M,,*4B
$GPRMC,210030.00,A,3742.85073428,N,12213.32514691,E,,,23032016,,,,*3D
$GPGSV,2,1,7,7,57,296,54,8,23,119,48,9,83,19,54,16,25,42,48*79
$GPGSV,2,2,7,23,56,116,54,27,24,85,48,30,32,270,48,,,,*42
$GPGSA,M,3,7,8,9,16,23,27,30,,,,,,2.24,1.34,1.79*35
$GPGGA,210031.00,3742.85074110,N,12213.32514505,E,1,07,1.34,-26.5,M,11.3,M,,*4D
$GPRMC,210031.00,A,3742.85074110,N,12213.32514505,E,,,23032016,,,,*3B
$GPGSV,2,1,7,7,57,296,54,8,23,119,48,9,83,19,54,16,25,42,48*79
$GPGSV,2,2,7,23,56,116,54,27,24,85,48,30,32,270,48,,,,*42
$GPGSA,M,3,7,8,9,16,23,27,30,,,,,,2.24,1.34,1.79*35
$GPGGA,210032.00,3742.85074821,N,12213.32513995,E,1,07,1.34,-26.5,M,11.3,M,,*47
$GPRMC,210032.00,A,3742.85074821,N,12213.32513995,E,,,23032016,,,,*31
$GPGSV,2,1,7,7,57,296,54,8,23,119,48,9,83,20,54,16,25,42,48*73
$GPGSV,2,2,7,23,56,116,54,27,24,85,48,30,32,270,48,,,,*42
$GPGSA,M,3,7,8,9,16,23,27,30,,,,,,2.24,1.34,1.79*35
$GPGGA,210033.00,3742.85075041,N,12213.32514636,E,1,07,1.34,-26.5,M,11.3,M,,*48
$GPRMC,210033.00,A,3742.85075041,N,12213.32514636,E,,,23032016,,,,*3E
$GPGSV,2,1,7,7,57,296,54,8,23,119,48,9,83,20,54,16,25,42,48*73
$GPGSV,2,2,7,23,56,116,54,27,24,85,48,30,32,270,48,,,,*42
$GPGSA,M,3,7,8,9,16,23,27,30,,,,,,2.24,1.34,1.79*35
$GPGGA,210034.00,3742.85073677,N,12213.32515832,E,1,07,1.34,-26.5,M,11.3,M,,*41
$GPRMC,210034.00,A,3742.85073677,N,12213.32515832,E,,,23032016,,,,*37
$GPGSV,2,1,7,7,57,296,54,8,23,119,48,9,83,20,54,16,25,42,48*73
$GPGSV,2,2,7,23,56,116,54,27,24,85,48,30,32,270,48,,,,*42
$GPGSA,M,3,7,8,9,16,23,27,30,,,,,,2.24,1.34,1.80*33
$GPGGA,210035.00,3742.85073023,N,12213.32515924,E,1,07,1.34,-26.5,M,11.3,M,,*41
$GPRMC,210035.00,A,3742.85073023,N,12213.32515924,E,,,23032016,,,,*37
$GPGSV,2,1,7,7,57,296,54,8,23,119,48,9,83,20,54,16,25,42,48*73
$GPGSV,2,2,7,23,56,116,54,27,24,85,48,30,32,270,48,,,,*42
$GPGSA,M,3,7,8,9,16,23,27,30,,,,,,2.24,1.34,1.80*33
$GPGGA,210036.00,3742.85073571,N,12213.32515683,E,1,07,1.34,-26.5,M,11.3,M,,*42
$GPRMC,210036.00,A,3742.85073571,N,12213.32515683,E,,,23032016,,,,*34
$GPGSV,2,1,7,7,57,296,54,8,23,119,48,9,83,20,54,16,25,42,48*73
$GPGSV,2,2,7,23,56,116,54,27,24,85,48,30,32,270,48,,,,*42
$GPGSA,M,3,7,8,9,16,23,27,30,,,,,,2.24,1.34,1.80*33
$GPGGA,210037.00,3742.85074607,N,12213.32515781,E,1,07,1.34,-26.5,M,11.3,M,,*45
$GPRMC,210037.00,A,3742.85074607,N,12213.32515781,E,,,23032016,,,,*33
$GPGSV,2,1,7,7,57,296,54,8,23,119,48,9,83,20,54,16,25,42,48*73
$GPGSV,2,2,7,23,56,116,54,27,24,85,48,30,32,270,48,,,,*42
$GPGSA,M,3,7,8,9,16,23,27,30,,,,,,2.24,1.34,1.80*33
$GPGGA,210038.00,3742.85074829,N,12213.32516156,E,1,07,1.34,-26.5,M,11.3,M,,*47
$GPRMC,210038.00,A,3742.85074829,N,12213.32516156,E,,,23032016,,,,*31
$GPGSV,2,1,7,7,57,296,54,8,23,119,48,9,83,20,54,16,25,42,48*73
$GPGSV,2,2,7,23,56,116,54,27,24,85,48,30,32,270,48,,,,*42
$GPGSA,M,3,7,8,9,16,23,27,30,,,,,,2.24,1.34,1.80*33
$GPGGA,210039.00,3742.85073375,N,12213.32516586,E,1,07,1.34,-26.5,M,11.3,M,,*4A
$GPRMC,210039.00,A,3742.85073375,N,12213.32516586,E,,,23032016,,,,*3C
$GPGSV,2,1,7,7,57,296,54,8,23,119,48,9,83,20,54,16,25,42,48*73
$GPGSV,2,2,7,23,56,116,54,27,24,85,48,30,32,270,48,,,,*42
$GPGSA,M,3,7,8,9,16,23,27,30,,,,,,2.24,1.34,1.80*33
$GPGGA,210040.00,3742.85073334,N,12213.32517219,E,1,07,1.34,-26.5,M,11.3,M,,*41
$GPRMC,210040.00,A,3742.85073334,N,12213.32517219,E,,,23032016,,,,*37
$GPGSV,2,1,7,7,57,296,54,8,23,119,48,9,83,20,54,16,25,42,48*73
$GPGSV,2,2,7,23,56,116,54,27,24,85,48,30,32,270,48,,,,*42
$GPGSA,M,3,7,8,9,16,23,27,30,,,,,,2.24,1.34,1.80*33
$GPGGA,210041.00,3742.85074403,N,12213.32516548,E,1,07,1.34,-26.5,M,11.3,M,,*46
$GPRMC,210041.00,A,3742.85074403,N,12213.32516548,E,,,23032016,,,,*30
$GPGSV,2,1,7,7,57,296,54,8,23,119,48,9,83,20,54,16,25,42,48*73
$GPGSV,2,2,7,23,56,116,54,27,24,85,48,30,32,270,48,,,,*42
$GPGSA,M,3,7,8,9,16,23,27,30,,,,,,2.24,1.34,1.80*33
$GPGGA,210042.00,3742.85073345,N,12213.32517061,E,1,07,1.34,-26.5,M,11.3,M,,*48
$GPRMC,210042.00,A,3742.85073345,N,12213.32517061,E,,,23032016,,,,*3E
$GPGSV,2,1,7,7,57,296,54,8,23,119,48,9,83,20,54,16,25,42,48*73
$GPGSV,2,2,7,23,56,116,54,27,24,85,48,30,32,270,48,,,,*42
$GPGSA,M,3,7,8,9,16,23,27,30,,,,,,2.24,1.34,1.80*33
$GPGGA,210043.00,3742.85073938,N,12213.32516717,E,1,07,1.34,-26.5,M,11.3,M,,*4E
$GPRMC,210043.00,A,3742.85073938,N,12213.32516717,E,,,23032016,,,,*38
$GPGSV,2,1,7,7,57,296,54,8,23,119,48,9,83,20,54,16,25,42,48*73
$GPGSV,2,2,7,23,56,116,54,27,24,85,48,30,32,270,48,,,,*42
$GPGSA,M,3,7,8,9,16,23,27,30,,,,,,2.24,1.34,1.80*33
$GPGGA,210044.00,3742.85073853,N,12213.32517407,E,1,07,1.34,-26.5,M,11.3,M,,*46
$GPRMC,210044.00,A,3742.85073853,N,12213.32517407,E,,,23032016,,,,*30
$GPGSV,2,1,7,7,58,296,54,8,23,119,48,9,83,20,54,16,25,42,48*7C
$GPGSV,2,2,7,23,56,116,54,27,24,85,48,30,32,270,48,,,,*42
$GPGSA,M,3,7,8,9,16,23,27,30,,,,,,2.24,1.34,1.80*33
$GPGGA,210045.00,3742.85074315,N,12213.32517609,E,1,07,1.34,-26.5,M,11.3,M,,*45
$GPRMC,210045.00,A,3742.85074315,N,12213.32517609,E,,,23032016,,,,*33
$GPGSV,2,1,7,7,58,296,54,8,23,119,48,9,83,20,54,16,25,42,48*7C
$GPGSV,2,2,7,23,56,116,54,27,24,85,48,30,32,270,48,,,,*42
$GPGSA,M,3,7,8,9,16,23,27,30,,,,,,2.24,1.34,1.80*33
$GPGGA,210046.00,3742.85073360,N,12213.32518582,E,1,07,1.34,-26.6,M,11.3,M,,*4F
$GPRMC,210046.00,A,3742.85073360,N,12213.32518582,E,,,23032016,,,,*3A
$GPGSV,2,1,7,7,58,296,54,8,23,119,48,9,83,20,54,16,25,42,48*7C
$GPGSV,2,2,7,23,56,116,54,27,24,85,48,30,32,270,48,,,,*42
$GPGSA,M,3,7,8,9,16,23,27,30,,,,,,2.24,1.34,1.80*33
$GPGGA,210047.00,3742.85073956,N,12213.32518434,E,1,07,1.34,-26.6,M,11.3,M,,*4D
$GPRMC,210047.00,A,3742.85073956,N,12213.32518434,E,,,23032016,,,,*38
$GPGSV,2,1,7,7,58,296,54,8,23,119,48,9,83,20,54,16,25,42,48*7C
$GPGSV,2,2,7,23,56,116,54,27,24,85,48,30,32,270,48,,,,*42
$GPGSA,M,3,7,8,9,16,23,27,30,,,,,,2.24,1.34,1.80*33
$GPGGA,210048.00,3742.85073522,N,12213.32518636,E,1,07,1.34,-26.5,M,11.3,M,,*4E
$GPRMC,210048.00,A,3742.85073522,N,12213.32518636,E,,,23032016,,,,*38
$GPGSV,2,1,7,7,58,296,54,8,23,119,48,9,83,20,54,16,25,42,48*7C
$GPGSV,2,2,7,23,56,116,54,27,24,85,48,30,32,270,48,,,,*42
$GPGSA,M,3,7,8,9,16,23,27,30,,,,,,2.24,1.34,1.80*33
$GPGGA,210049.00,3742.85073593,N,12213.32518989,E,1,07,1.34,-26.6,M,11.3,M,,*4D
$GPRMC,210049.00,A,3742.85073593,N,12213.32518989,E,,,23032016,,,,*38
$GPGSV,2,1,7,7,58,296,54,8,23,119,48,9,83,20,54,16,25,42,48*7C
$GPGSV,2,2,7,23,56,116,54,27,24,85,48,30,32,270,48,,,,*42
$GPGSA,M,3,7,8,9,16,23,27,30,,,,,,2.24,1.34,1.80*33
$GPGGA,210050.00,3742.85074770,N,12213.32518646,E,1,07,1.34,-26.6,M,11.3,M,,*41
$GPRMC,210050.00,A,3742.85074770,N,12213.32518646,E,,,23032016,,,,*34
$GPGSV,2,1,7,7,58,296,54,8,23,119,48,9,83,21,54,16,25,42,48*7D
$GPGSV,2,2,7,23,56,116,54,27,24,85,48,30,32,270,48,,,,*42
$GPGSA,M,3,7,8,9,16,23,27,30,,,,,,2.24,1.34,1.80*33
$GPGGA,210051.00,3742.85074172,N,12213.32519112,E,1,07,1.34,-26.6,M,11.3,M,,*43
$GPRMC,210051.00,A,3742.85074172,N,12213.32519112,E,,,23032016,,,,*36
$GPGSV,2,1,7,7,58,296,54,8,23,119,48,9,83,21,54,16,25,42,48*7D
$GPGSV,2,2,7,23,56,116,54,27,24,85,48,30,32,270,48,,,,*42
$GPGSA,M,3,7,8,9,16,23,27,30,,,,,,2.24,1.34,1.80*33
$GPGGA,210052.00,3742.85073721,N,12213.32518644,E,1,07,1.34,-26.6,M,11.3,M,,*42
$GPRMC,210052.00,A,3742.85073721,N,12213.32518644,E,,,23032016,,,,*37
$GPGSV,2,1,7,7,58,296,54,8,23,119,48,9,83,21,54,16,25,42,48*7D
$GPGSV,2,2,7,23,56,116,54,27,24,85,48,30,32,270,48,,,,*42
$GPGSA,M,3,7,8,9,16,23,27,30,,,,,,2.24,1.34,1.80*33
$GPGGA,210053.00,3742.85073932,N,12213.32519495,E,1,07,1.34,-26.6,M,11.3,M,,*40
$GPRMC,210053.00,A,3742.85073932,N,12213.32519495,E,,,23032016,,,,*35
$GPGSV,2,1,7,7,58,296,54,8,23,119,48,9,83,21,54,16,25,42,48*7D
$GPGSV,2,2,7,23,56,116,54,27,24,85,48,30,32,270,48,,,,*42
$GPGSA,M,3,7,8,9,16,23,27,30,,,,,,2.24,1.34,1.80*33
$GPGGA,210054.00,3742.85073780,N,12213.32519291,E,1,07,1.34,-26.6,M,11.3,M,,*42
$GPRMC,210054.00,A,3742.85073780,N,12213.32519291,E,,,23032016,,,,*37
$GPGSV,2,1,7,7,58,296,54,8,23,119,48,9,83,21,54,16,25,42,48*7D
$GPGSV,2,2,7,23,56,116,54,27,24,85,48,30,32,270,48,,,,*42
$GPGSA,M,3,7,8,9,16,23,27,30,,,,,,2.24,1.34,1.80*33
$GPGGA,210055.00,3742.85072121,N,12213.32519763,E,1,07,1.34,-26.6,M,11.3,M,,*47
$GPRMC,210055.00,A,3742.85072121,N,12213.32519763,E,,,23032016,,,,*32
$GPGSV,2,1,7,7,58,296,54,8,23,119,48,9,83,21,54,16,25,42,48*7D
$GPGSV,2,2,7,23,56,116,54,27,24,85,48,30,32,270,48,,,,*42
$GPGSA,M,3,7,8,9,16,23,27,30,,,,,,2.24,1.34,1.80*33
$GPGGA,210056.00,3742.85073518,N,12213.32519737,E,1,07,1.34,-26.6,M,11.3,M,,*4A
$GPRMC,210056.00,A,3742.85073518,N,12213.32519737,E,,,23032016,,,,*3F
$GPGSV,2,1,7,7,58,296,54,8,23,119,48,9,83,21,54,16,25,42,48*7D
$GPGSV,2,2,7,23,56,116,54,27,24,85,48,30,32,270,48,,,,*42
$GPGSA,M,3,7,8,9,16,23,27,30,,,,,,2.24,1.34,1.80*33
$GPGGA,210057.00,3742.85072358,N,12213.32520520,E,1,07,1.34,-26.6,M,11.3,M,,*46
$GPRMC,210057.00,A,3742.85072358,N,12213.32520520,E,,,23032016,,,,*33
$GPGSV,2,1,7,7,58,296,54,8,23,119,48,9,83,21,54,16,25,42,48*7D
$GPGSV,2,2,7,23,56,116,54,27,24,85,48,30,32,270,48,,,,*42
$GPGSA,M,3,7,8,9,16,23,27,30,,,,,,2.24,1.34,1.80*33
$GPGGA,210058.00,3742.85073660,N,12213.32520213,E,1,07,1.34,-26.6,M,11.3,M,,*41
$GPRMC,210058.00,A,3742.85073660,N,12213.32520213,E,,,23032016,,,,*34
$GPGSV,2,1,7,7,58,296,54,8,23,119,48,9,83,21,54,16,25,42,48*7D
$GPGSV,2,2,7,23,56,116,54,27,24,85,48,30,32,270,48,,,,*42
$GPGSA,M,3,7,8,9,16,23,27,30,,,,,,2.24,1.34,1.80*33
$GPGGA,210059.00,3742.85073947,N,12213.32519573,E,1,07,1.34,-26.6,M,11.3,M,,*41
$GPRMC,210059.00,A,3742.85073947,N,12213.32519573,E,,,23032016,,,,*34
$GPGSV,2,1,7,7,58,296,54,8,23,119,48,9,83,21,54,16,25,42,48*7D
$GPGSV,2,2,7,23,56,116,54,27,24,85,48,30,32,270,48,,,,*42
$GPGSA,M,3,7,8,9,16,23,27,30,,,,,,2.24,1.34,1.80*33
$GPGGA,210100.00,3742.85073732,N,12213.32520086,E,1,07,1.34,-26.6,M,11.3,M,,*45
$GPRMC,210100.00,A,3742.85073732,N,12213.32520086,E,,,23032016,,,,*30
$GPGSV,2,1,7,7,58,296,54,8,23,119,48,9,83,21,54,16,25,42,48*7D
$GPGSV,2,2,7,23,56,116,54,27,24,85,48,30,32,270,48,,,,*42
$GPGSA,M,3,7,8,9,16,23,27,30,,,,,,2.25,1.34,1.80*32
$GPGGA,210101.00,3742.85072942,N,12213.32519984,E,1,07,1.34,-26.6,M,11.3,M,,*4D
$GPRMC,210101.00,A,3742.85072942,N,12213.32519984,E,,,23032016,,,,*38
$GPGSV,2,1,7,7,58,296,54,8,23,119,48,9,83,21,54,16,25,42,48*7D
$GPGSV,2,2,7,23,56,116,54,27,24,85,48,30,32,270,48,,,,*42
$GPGSA,M,3,7,8,9,16,23,27,30,,,,,,2.25,1.34,1.80*32
$GPGGA,210102.00,3742.85073337,N,12213.32519798,E,1,07,1.34,-26.6,M,11.3,M,,*44
$GPRMC,210102.00,A,3742.85073337,N,12213.32519798,E,,,23032016,,,,*31
$GPGSV,2,1,7,7,58,296,54,8,23,119,48,9,83,21,54,16,25,42,48*7D
$GPGSV,2,2,7,23,56,116,54,27,24,85,48,30,32,270,48,,,,*42
$GPGSA,M,3,7,8,9,16,23,27,30,,,,,,2.25,1.34,1.80*32
$GPGGA,210103.00,3742.85073589,N,12213.32518817,E,1,07,1.34,-26.6,M,11.3,M,,*4F
$GPRMC,210103.00,A,3742.85073589,N,12213.32518817,E,,,23032016,,,,*3A
$GPGSV,2,1,7,7,58,296,54,8,23,119,48,9,83,21,54,16,25,42,48*7D
$GPGSV,2,2,7,23,56,116,54,27,24,85,48,30,32,270,48,,,,*42
$GPGSA,M,3,7,8,9,16,23,27,30,,,,,,2.25,1.34,1.80*32
$GPGGA,210104.00,3742.85073526,N,12213.32518488,E,1,07,1.34,-26.6,M,11.3,M,,*47
$GPRMC,210104.00,A,3742.85073526,N,12213.32518488,E,,,23032016,,,,*32
$GPGSV,2,1,7,7,58,296,54,8,23,119,48,9,83,21,54,16,25,42,48*7D
$GPGSV,2,2,7,23,56,116,54,27,24,85,48,30,32,270,48,,,,*42
$GPGSA,M,3,7,8,9,16,23,27,30,,,,,,2.25,1.34,1.80*32
$GPGGA,210105.00,3742.85073028,N,12213.32518444,E,1,07,1.34,-26.6,M,11.3,M,,*4D
$GPRMC,210105.00,A,3742.85073028,N,12213.32518444,E,,,23032016,,,,*38
$GPGSV,2,1,7,7,58,296,54,8,23,119,48,9,83,21,54,16,25,42,48*7D
$GPGSV,2,2,7,23,56,116,54,27,24,85,48,30,32,270,48,,,,*42
$GPGSA,M,3,7,8,9,16,23,27,30,,,,,,2.25,1.34,1.80*32
$GPGGA,210106.00,3742.85073000,N,12213.32518735,E,1,07,1.34,-26.6,M,11.3,M,,*41
$GPRMC,210106.00,A,3742.85073000,N,12213.32518735,E,,,23032016,,,,*34
$GPGSV,2,1,7,7,58,296,54,8,23,119,48,9,83,21,54,16,25,42,48*7D
$GPGSV,2,2,7,23,56,116,54,27,24,85,48,30,32,270,48,,,,*42
$GPGSA,M,3,7,8,9,16,23,27,30,,,,,,2.25,1.34,1.80*32
$GPGGA,210107.00,3742.85072935,N,12213.32518739,E,1,07,1.34,-26.6,M,11.3,M,,*42
$GPRMC,210107.00,A,3742.85072935,N,12213.32518739,E,,,23032016,,,,*37
$GPGSV,2,1,7,7,58,296,54,8,23,119,48,9,83,21,54,16,25,42,48*7D
$GPGSV,2,2,7,23,56,116,54,27,24,85,48,30,32,270,48,,,,*42
$GPGSA,M,3,7,8,9,16,23,27,30,,,,,,2.25,1.34,1.80*32
$GPGGA,210108.00,3742.85072609,N,12213.32518138,E,1,07,1.34,-26.6,M,11.3,M,,*4A
$GPRMC,210108.00,A,3742.85072609,N,12213.32518138,E,,,23032016,,,,*3F
$GPGSV,2,1,7,7,58,296,54,8,23,119,48,9,83,22,54,16,25,42,48*7E
$GPGSV,2,2,7,23,56,116,54,27,24,85,48,30,32,270,48,,,,*42
$GPGSA,M,3,7,8,9,16,23,27,30,,,,,,2.25,1.34,1.80*32
$GPGGA,210109.00,3742.85071958,N,12213.32517820,E,1,07,1.34,-26.6,M,11.3,M,,*4C
$GPRMC,210109.00,A,3742.85071958,N,12213.32517820,E,,,23032016,,,,*39
$GPGSV,2,1,7,7,58,296,54,8,23,119,48,9,83,22,54,16,25,42,48*7E
$GPGSV,2,2,7,23,56,116,54,27,24,85,48,30,32,270,48,,,,*42
$GPGSA,M,3,7,8,9,16,23,27,30,,,,,,2.25,1.34,1.80*32
$GPGGA,210110.00,3742.85072851,N,12213.32517318,E,1,07,1.34,-26.6,M,11.3,M,,*4F
$GPRMC,210110.00,A,3742.85072851,N,12213.32517318,E,,,23032016,,,,*3A
$GPGSV,2,1,7,7,58,296,54,8,23,119,48,9,83,22,54,16,25,42,48*7E
$GPGSV,2,2,7,23,56,116,54,27,24,85,48,30,32,270,48,,,,*42
$GPGSA,M,3,7,8,9,16,23,27,30,,,,,,2.25,1.34,1.80*32
$GPGGA,210111.00,3742.85072453,N,12213.32517384,E,1,07,1.34,-26.6,M,11.3,M,,*45
$GPRMC,210111.00,A,3742.85072453,N,12213.32517384,E,,,23032016,,,,*30
$GPGSV,2,1,7,7,58,296,54,8,23,119,48,9,83,22,54,16,25,42,48*7E
$GPGSV,2,2,7,23,55,116,54,27,24,85,48,30,32,270,48,,,,*41
$GPGSA,M,3,7,8,9,16,23,27,30,,,,,,2.25,1.34,1.80*32
$GPGGA,210112.00,3742.85072437,N,12213.32517043,E,1,07,1.34,-26.6,M,11.3,M,,*4C
$GPRMC,210112.00,A,3742.85072437,N,12213.32517043,E,,,23032016,,,,*39
$GPGSV,2,1,7,7,58,296,54,8,23,119,48,9,83,22,54,16,25,42,48*7E
$GPGSV,2,2,7,23,55,116,54,27,24,85,48,30,32,270,48,,,,*41
$GPGSA,M,3,7,8,9,16,23,27,30,,,,,,2.25,1.34,1.80*32
$GPGGA,210113.00,3742.85071722,N,12213.32518234,E,1,07,1.34,-26.6,M,11.3,M,,*44
$GPRMC,210113.00,A,3742.85071722,N,12213.32518234,E,,,23032016,,,,*31
$GPGSV,2,1,7,7,58,296,54,8,23,119,48,9,83,22,54,16,25,42,48*7E
$GPGSV,2,2,7,23,55,117,54,27,24,85,48,30,32,270,48,,,,*40
$GPGSA,M,3,7,8,9,16,23,27,30,,,,,,2.25,1.34,1.80*32
$GPGGA,210114.00,3742.85071132,N,12213.32517405,E,1,07,1.34,-26.6,M,11.3,M,,*4F
$GPRMC,210114.00,A,3742.85071132,N,12213.32517405,E,,,23032016,,,,*3A
$GPGSV,2,1,7,7,58,296,54,8,23,119,48,9,83,22,54,16,25,42,48*7E
$GPGSV,2,2,7,23,55,117,54,27,24,85,48,30,32,270,48,,,,*40
$GPGSA,M,3,7,8,9,16,23,27,30,,,,,,2.25,1.34,1.80*32
$GPGGA,210115.00,3742.85072343,N,12213.32517286,E,1,07,1.34,-26.7,M,11.3,M,,*45
$GPRMC,210115.00,A,3742.85072343,N,12213.32517286,E,,,23032016,,,,*31
$GPGSV,2,1,7,7,58,296,54,8,23,119,48,9,83,22,54,16,25,42,48*7E
$GPGSV,2,2,7,23,55,117,54,27,24,85,48,30,32,270,48,,,,*40
$GPGSA,M,3,7,8,9,16,23,27,30,,,,,,2.25,1.34,1.80*32
$GPGGA,210116.00,3742.85071862,N,12213.32516927,E,1,07,1.34,-26.6,M,11.3,M,,*4D
$GPRMC,210116.00,A,3742.85071862,N,12213.32516927,E,,,23032016,,,,*38
$GPGSV,2,1,7,7,58,296,54,8,23,119,48,9,83,22,54,16,25,42,48*7E
$GPGSV,2,2,7,23,55,117,54,27,24,85,48,30,32,270,48,,,,*40
$GPGSA,M,3,7,8,9,16,23,27,30,,,,,,2.25,1.34,1.80*32
$GPGGA,210117.00,3742.85072336,N,12213.32516533,E,1,07,1.34,-26.6,M,11.3,M,,*4C
$GPRMC,210117.00,A,3742.85072336,N,12213.32516533,E,,,23032016,,,,*39
$GPGSV,2,1,7,7,58,296,54,8,23,119,48,9,83,22,54,16,25,42,48*7E
$GPGSV,2,2,7,23,55,117,54,27,24,85,48,30,32,270,48,,,,*40
$GPGSA,M,3,7,8,9,16,23,27,30,,,,,,2.25,1.34,1.80*32
$GPGGA,210118.00,3742.85071822,N,12213.32516014,E,1,07,1.34,-26.6,M,11.3,M,,*4E
$GPRMC,210118.00,A,3742.85071822,N,12213.32516014,E,,,23032016,,,,*3B
$GPGSV,2,1,7,7,58,296,54,8,23,119,48,9,83,22,54,16,25,42,48*7E
$GPGSV,2,2,7,23,55,117,54,27,24,85,48,30,32,270,48,,,,*40
$GPGSA,M,3,7,8,9,16,23,27,30,,,,,,2.25,1.34,1.80*32
$GPGGA,210119.00,3742.85072586,N,12213.32516696,E,1,07,1.34,-26.6,M,11.3,M,,*43
$GPRMC,210119.00,A,3742.85072586,N,12213.32516696,E,,,23032016,,,,*36
$GPGSV,2,1,7,7,58,296,54,8,23,119,48,9,83,22,54,16,25,42,48*7E
$GPGSV,2,2,7,23,55,117,54,27,24,85,48,30,32,270,48,,,,*40
$GPGSA,M,3,7,8,9,16,23,27,30,,,,,,2.25,1.34,1.80*32
$GPGGA,210120.00,3742.85072486,N,12213.32516219,E,1,07,1.34,-26.6,M,11.3,M,,*4B
$GPRMC,210120.00,A,3742.85072486,N,12213.32516219,E,,,23032016,,,,*3E
$GPGSV,2,1,7,7,58,296,54,8,23,119,48,9,83,22,54,16,25,42,48*7E
$GPGSV,2,2,7,23,55,117,54,27,24,85,48,30,32,270,48,,,,*40
$GPGSA,M,3,7,8,9,16,23,27,30,,,,,,2.25,1.34,1.80*32
$GPGGA,210121.00,3742.85071883,N,12213.32516325,E,1,07,1.34,-26.6,M,11.3,M,,*4E
$GPRMC,210121.00,A,3742.85071883,N,12213.32516325,E,,,23032016,,,,*3B
$GPGSV,2,1,7,7,58,296,54,8,23,119,48,9,83,22,54,16,25,42,48*7E
$GPGSV,2,2,7,23,55,117,54,27,24,85,48,30,32,270,48,,,,*40
$GPGSA,M,3,7,8,9,16,23,27,30,,,,,,2.25,1.34,1.80*32
$GPGGA,210122.00,3742.85071044,N,12213.32516067,E,1,07,1.34,-26.6,M,11.3,M,,*4B
$GPRMC,210122.00,A,3742.85071044,N,12213.32516067,E,,,23032016,,,,*3E
$GPGSV,2,1,7,7,58,296,54,8,23,119,48,9,83,22,54,16,25,42,48*7E
$GPGSV,2,2,7,23,55,117,54,27,24,85,48,30,32,270,48,,,,*40
$GPGSA,M,3,7,8,9,16,23,27,30,,,,,,2.25,1.34,1.81*33
$GPGGA,210123.00,3742.85072818,N,12213.32515906,E,1,07,1.34,-26.6,M,11.3,M,,*45
$GPRMC,210123.00,A,3742.85072818,N,12213.32515906,E,,,23032016,,,,*30
$GPGSV,2,1,7,7,58,296,54,8,23,119,48,9,83,22,54,16,25,42,48*7E
$GPGSV,2,2,7,23,55,117,54,27,24,85,48,30,32,270,48,,,,*40
$GPGSA,M,3,7,8,9,16,23,27,30,,,,,,2.25,1.34,1.81*33
$GPGGA,210124.00,3742.85072176,N,12213.32515707,E,1,07,1.34,-26.6,M,11.3,M,,*4C
$GPRMC,210124.00,A,3742.85072176,N,12213.32515707,E,,,23032016,,,,*39
$GPGSV,2,1,7,7,58,296,54,8,23,119,48,9,83,22,54,16,25,42,48*7E
$GPGSV,2,2,7,23,55,117,54,27,24,85,48,30,32,270,48,,,,*40
$GPGSA,M,3,7,8,9,16,23,27,30,,,,,,2.25,1.34,1.81*33
$GPGGA,210125.00,3742.85073193,N,12213.32515274,E,1,07,1.34,-26.6,M,11.3,M,,*46
$GPRMC,210125.00,A,3742.85073193,N,12213.32515274,E,,,23032016,,,,*33
$GPGSV,2,1,7,7,58,296,54,8,23,119,48,9,83,22,54,16,25,42,48*7E
$GPGSV,2,2,7,23,55,117,54,27,24,85,48,30,32,270,48,,,,*40
$GPGSA,M,3,7,8,9,16,23,27,30,,,,,,2.25,1.34,1.81*33
$GPGGA,210126.00,3742.85073009,N,12213.32514781,E,1,07,1.34,-26.6,M,11.3,M,,*49
$GPRMC,210126.00,A,3742.85073009,N,12213.32514781,E,,,23032016,,,,*3C
$GPGSV,2,1,7,7,58,296,54,8,23,119,48,9,83,23,54,16,25,42,48*7F
$GPGSV,2,2,7,23,55,117,54,27,24,85,48,30,32,270,48,,,,*40
$GPGSA,M,3,7,8,9,16,23,27,30,,,,,,2.25,1.34,1.81*33
$GPGGA,210127.00,3742.85073990,N,12213.32514678,E,1,07,1.34,-26.6,M,11.3,M,,*46
$GPRMC,210127.00,A,3742.85073990,N,12213.32514678,E,,,23032016,,,,*33
$GPGSV,2,1,7,7,58,296,54,8,23,119,48,9,83,23,54,16,25,42,48*7F
$GPGSV,2,2,7,23,55,117,54,27,24,85,48,30,32,270,48,,,,*40
$GPGSA,M,3,7,8,9,16,23,27,30,,,,,,2.25,1.34,1.81*33
$GPGGA,210128.00,3742.85073971,N,12213.32513917,E,1,07,1.34,-26.6,M,11.3,M,,*47
$GPRMC,210128.00,A,3742.85073971,N,12213.32513917,E,,,23032016,,,,*32
$GPGSV,2,1,7,7,58,296,54,8,23,119,48,9,83,23,54,16,25,42,48*7F
$GPGSV,2,2,7,23,55,117,54,27,24,85,48,30,32,270,48,,,,*40
$GPGSA,M,3,7,8,9,16,23,27,30,,,,,,2.25,1.34,1.81*33
$GPGGA,210129.00,3742.85074815,N,12213.32513859,E,1,07,1.34,-26.6,M,11.3,M,,*49
$GPRMC,210129.00,A,3742.85074815,N,12213.32513859,E,,,23032016,,,,*3C
$GPGSV,2,1,7,7,58,296,54,8,23,119,48,9,83,23,54,16,25,42,48*7F
$GPGSV,2,2,7,23,55,117,54,27,24,85,48,30,32,270,48,,,,*40
$GPGSA,M,3,7,8,9,16,23,27,30,,,,,,2.25,1.34,1.81*33
$GPGGA,210130.00,3742.85075536,N,12213.32513480,E,1,07,1.34,-26.6,M,11.3,M,,*44
$GPRMC,210130.00,A,3742.85075536,N,12213.32513480,E,,,23032016,,,,*31
$GPGSV,2,1,7,7,58,296,54,8,23,119,48,9,83,23,54,16,25,42,48*7F
$GPGSV,2,2,7,23,55,117,54,27,24,85,48,30,32,270,48,,,,*40
$GPGSA,M,3,7,8,9,16,23,27,30,,,,,,2.25,1.34,1.81*33
$GPGGA,210131.00,3742.85075072,N,12213.32513851,E,1,07,1.34,-26.6,M,11.3,M,,*40
$GPRMC,210131.00,A,3742.85075072,N,12213.32513851,E,,,23032016,,,,*35
$GPGSV,2,1,7,7,58,297,54,8,23,119,48,9,83,23,54,16,25,42,48*7E
$GPGSV,2,2,7,23,55,117,54,27,24,85,48,30,32,270,48,,,,*40
$GPGSA,M,3,7,8,9,16,23,27,30,,,,,,2.25,1.34,1.81*33
$GPGGA,210132.00,3742.85074110,N,12213.32513740,E,1,07,1.34,-26.6,M,11.3,M,,*48
$GPRMC,210132.00,A,3742.85074110,N,12213.32513740,E,,,23032016,,,,*3D
$GPGSV,2,1,7,7,58,297,54,8,23,119,48,9,83,23,54,16,25,42,48*7E
$GPGSV,2,2,7,23,55,117,54,27,24,85,48,30,32,270,48,,,,*40
$GPGSA,M,3,7,8,9,16,23,27,30,,,,,,2.25,1.34,1.81*33
$GPGGA,210133.00,3742.85075771,N,12213.32513047,E,1,07,1.34,-26.6,M,11.3,M,,*49
$GPRMC,210133.00,A,3742.85075771,N,12213.32513047,E,,,23032016,,,,*3C
$GPGSV,2,1,7,7,58,297,54,8,23,119,48,9,83,23,54,16,25,42,48*7E
$GPGSV,2,2,7,23,55,117,54,27,24,85,48,30,32,270,48,,,,*40
$GPGSA,M,3,7,8,9,16,23,27,30,,,,,,2.25,1.34,1.81*33
$GPGGA,210134.00,3742.85076003,N,12213.32512355,E,1,07,1.34,-26.6,M,11.3,M,,*4E
$GPRMC,210134.00,A,3742.85076003,N,12213.32512355,E,,,23032016,,,,*3B
$GPGSV,2,1,7,7,58,297,54,8,23,119,48,9,83,23,54,16,25,42,48*7E
$GPGSV,2,2,7,23,55,117,54,27,24,85,48,30,32,270,48,,,,*40
$GPGSA,M,3,7,8,9,16,23,27,30,,,,,,2.25,1.34,1.81*33
$GPGGA,210135.00,3742.85075487,N,12213.32512519,E,1,07,1.34,-26.6,M,11.3,M,,*4A
$GPRMC,210135.00,A,3742.85075487,N,12213.32512519,E,,,23032016,,,,*3F
$GPGSV,2,1,7,7,58,297,54,8,23,119,48,9,83,23,54,16,25,42,48*7E
$GPGSV,2,2,7,23,55,117,54,27,24,85,48,30,32,270,48,,,,*40
$GPGSA,M,3,7,8,9,16,23,27,30,,,,,,2.25,1.34,1.81*33
$GPGGA,210136.00,3742.85077659,N,12213.32512129,E,1,07,1.34,-26.6,M,11.3,M,,*4D
$GPRMC,210136.00,A,3742.85077659,N,12213.32512129,E,,,23032016,,,,*38
$GPGSV,2,1,7,7,58,297,54,8,23,119,48,9,83,23,54,16,25,42,48*7E
$GPGSV,2,2,7,23,55,117,54,27,24,85,48,30,32,270,48,,,,*40
$GPGSA,M,3,7,8,9,16,23,27,30,,,,,,2.25,1.34,1.81*33
$GPGGA,210137.00,3742.85076921,N,12213.32512349,E,1,07,1.34,-26.6,M,11.3,M,,*49
$GPRMC,210137.00,A,3742.85076921,N,12213.32512349,E,,,23032016,,,,*3C
$GPGSV,2,1,7,7,58,297,54,8,23,119,48,9,83,23,54,16,25,42,48*7E
$GPGSV,2,2,7,23,55,117,54,27,24,85,48,30,32,270,48,,,,*40
$GPGSA,M,3,7,8,9,16,23,27,30,,,,,,2.25,1.34,1.81*33
$GPGGA,210138.00,3742.85077333,N,12213.32512196,E,1,07,1.34,-26.6,M,11.3,M,,*4E
$GPRMC,210138.00,A,3742.85077333,N,12213.32512196,E,,,23032016,,,,*3B
$GPGSV,2,1,7,7,58,297,54,8,23,119,48,9,83,23,54,16,25,42,48*7E
$GPGSV,2,2,7,23,55,117,54,27,24,85,48,30,32,270,48,,,,*40
$GPGSA,M,3,7,8,9,16,23,27,30,,,,,,2.25,1.34,1.81*33
$GPGGA,210139.00,3742.85077246,N,12213.32511885,E,1,07,1.34,-26.6,M,11.3,M,,*44
$GPRMC,210139.00,A,3742.85077246,N,12213.32511885,E,,,23032016,,,,*31
$GPGSV,2,1,7,7,58,297,54,8,23,119,48,9,83,23,54,16,25,42,48*7E
$GPGSV,2,2,7,23,55,117,54,27,24,85,48,30,32,270,48,,,,*40
$GPGSA,M,3,7,8,9,16,23,27,30,,,,,,2.25,1.34,1.81*33
$GPGGA,210140.00,3742.85077837,N,12213.32510679,E,1,07,1.34,-26.5,M,11.3,M,,*49
$GPRMC,210140.00,A,3742.85077837,N,12213.32510679,E,,,23032016,,,,*3F
$GPGSV,2,1,7,7,58,297,54,8,23,119,48,9,83,23,54,16,25,42,48*7E
$GPGSV,2,2,7,23,55,117,54,27,24,85,48,30,32,270,48,,,,*40
$GPGSA,M,3,7,8,9,16,23,27,30,,,,,,2.25,1.34,1.81*33
$GPGGA,210141.00,3742.85077098,N,12213.32511204,E,1,07,1.34,-26.6,M,11.3,M,,*49
$GPRMC,210141.00,A,3742.85077098,N,12213.32511204,E,,,23032016,,,,*3C
$GPGSV,2,1,7,7,58,297,54,8,23,119,48,9,83,23,54,16,25,42,48*7E
$GPGSV,2,2,7,23,55,117,54,27,24,85,48,30,32,270,48,,,,*40
$GPGSA,M,3,7,8,9,16,23,27,30,,,,,,2.25,1.34,1.81*33
$GPGGA,210142.00,3742.85078646,N,12213.32511088,E,1,07,1.34,-26.6,M,11.3,M,,*46
$GPRMC,210142.00,A,3742.85078646,N,12213.32511088,E,,,23032016,,,,*33
$GPGSV,2,1,7,7,58,297,54,8,23,119,48,9,83,23,54,16,25,42,48*7E
$GPGSV,2,2,7,23,55,117,54,27,24,85,48,30,32,270,48,,,,*40
$GPGSA,M,3,7,8,9,16,23,27,30,,,,,,2.25,1.34,1.81*33
$GPGGA,210143.00,3742.85078655,N,12213.32511168,E,1,07,1.34,-26.6,M,11.3,M,,*4A
$GPRMC,210143.00,A,3742.85078655,N,12213.32511168,E,,,23032016,,,,*3F
$GPGSV,2,1,7,7,58,297,54,8,23,119,48,9,83,24,54,16,25,42,48*79
$GPGSV,2,2,7,23,55,117,54,27,24,85,48,30,32,270,48,,,,*40
$GPGSA,M,3,7,8,9,16,23,27,30,,,,,,2.25,1.34,1.81*33
$GPGGA,210144.00,3742.85078034,N,12213.32510797,E,1,07,1.34,-26.6,M,11.3,M,,*4B
$GPRMC,210144.00,A,3742.85078034,N,12213.32510797,E,,,23032016,,,,*3E
$GPGSV,2,1,7,7,58,297,54,8,23,119,48,9,83,24,54,16,25,42,48*79
$GPGSV,2,2,7,23,55,117,54,27,24,85,48,30,32,270,48,,,,*40
$GPGSA,M,3,7,8,9,16,23,27,30,,,,,,2.25,1.34,1.81*33
$GPGGA,210145.00,3742.85076923,N,12213.32510755,E,1,07,1.34,-26.6,M,11.3,M,,*45
$GPRMC,210145.00,A,3742.85076923,N,12213.32510755,E,,,23032016,,,,*30
$GPGSV,2,1,7,7,58,297,54,8,23,119,48,9,83,24,54,16,25,42,48*79
$GPGSV,2,2,7,23,55,117,54,27,24,85,48,30,32,270,48,,,,*40
$GPGSA,M,3,7,8,9,16,23,27,30,,,,,,2.25,1.34,1.81*33
$GPGGA,210146.00,3742.85077437,N,12213.32510142,E,1,07,1.34,-26.6,M,11.3,M,,*4F
$GPRMC,210146.00,A,3742.85077437,N,12213.32510142,E,,,23032016,,,,*3A
$GPGSV,2,1,7,7,58,297,54,8,23,119,48,9,83,24,54,16,25,42,48*79
$GPGSV,2,2,7,23,55,117,54,27,24,85,48,30,32,270,48,,,,*40
$GPGSA,M,3,7,8,9,16,23,27,30,,,,,,2.25,1.34,1.81*33
$GPGGA,210147.00,3742.85077083,N,12213.32510141,E,1,07,1.34,-26.6,M,11.3,M,,*46
$GPRMC,210147.00,A,3742.85077083,N,12213.32510141,E,,,23032016,,,,*33
$GPGSV,2,1,7,7,58,297,54,8,23,119,48,9,83,24,54,16,25,42,48*79
$GPGSV,2,2,7,23,55,117,54,27,24,85,48,30,32,270,48,,,,*40
$GPGSA,M,3,7,8,9,16,23,27,30,,,,,,2.25,1.34,1.81*33
$GPGGA,210148.00,3742.85077388,N,12213.32510398,E,1,07,1.34,-26.6,M,11.3,M,,*47
$GPRMC,210148.00,A,3742.85077388,N,12213.32510398,E,,,23032016,,,,*32
$GPGSV,2,1,7,7,58,297,54,8,23,119,48,9,83,24,54,16,25,42,48*79
$GPGSV,2,2,7,23,55,117,54,27,24,85,48,30,32,270,48,,,,*40
$GPGSA,M,3,7,8,9,16,23,27,30,,,,,,2.25,1.34,1.81*33
$GPGGA,210149.00,3742.85078390,N,12213.32510414,E,1,07,1.34,-26.5,M,11.3,M,,*40
$GPRMC,210149.00,A,3742.85078390,N,12213.32510414,E,,,23032016,,,,*36
$GPGSV,2,1,7,7,58,297,54,8,23,119,48,9,83,24,54,16,25,42,48*79
$GPGSV,2,2,7,23,55,117,54,27,24,85,48,30,32,270,48,,,,*40
$GPGSA,M,3,7,8,9,16,23,27,30,,,,,,2.26,1.34,1.81*30
$GPGGA,210150.00,3742.85077702,N,12213.32510298,E,1,07,1.34,-26.5,M,11.3,M,,*4A
$GPRMC,210150.00,A,3742.85077702,N,12213.32510298,E,,,23032016,,,,*3C
$GPGSV,2,1,7,7,58,297,54,8,23,119,48,9,83,24,54,16,25,42,48*79
$GPGSV,2,2,7,23,55,117,54,27,24,85,48,30,32,270,48,,,,*40
$GPGSA,M,3,7,8,9,16,23,27,30,,,,,,2.26,1.34,1.81*30
$GPGGA,210151.00,3742.85077723,N,12213.32511130,E,1,07,1.34,-26.5,M,11.3,M,,*48
$GPRMC,210151.00,A,3742.85077723,N,12213.32511130,E,,,23032016,,,,*3E
$GPGSV,2,1,7,7,58,297,54,8,23,119,48,9,83,24,54,16,25,42,48*79
$GPGSV,2,2,7,23,55,117,54,27,24,85,48,30,32,270,48,,,,*40
$GPGSA,M,3,7,8,9,16,23,27,30,,,,,,2.26,1.34,1.81*30
$GPGGA,210152.00,3742.85078383,N,12213.32510542,E,1,07,1.34,-26.5,M,11.3,M,,*4A
$GPRMC,210152.00,A,3742.85078383,N,12213.32510542,E,,,23032016,,,,*3C
$GPGSV,2,1,7,7,58,297,54,8,23,119,48,9,83,24,54,16,25,42,48*79
$GPGSV,2,2,7,23,55,117,54,27,24,85,48,30,32,270,48,,,,*40
$GPGSA,M,3,7,8,9,16,23,27,30,,,,,,2.26,1.34,1.81*30
$GPGGA,210153.00,3742.85078534,N,12213.32509955,E,1,07,1.34,-26.5,M,11.3,M,,*43
$GPRMC,210153.00,A,3742.85078534,N,12213.32509955,E,,,23032016,,,,*35
$GPGSV,2,1,7,7,58,297,54,8,23,119,48,9,83,24,54,16,25,42,48*79
$GPGSV,2,2,7,23,55,117,54,27,24,85,48,30,32,270,48,,,,*40
$GPGSA,M,3,7,8,9,16,23,27,30,,,,,,2.26,1.34,1.81*30
$GPGGA,210154.00,3742.85079089,N,12213.32510362,E,1,07,1.34,-26.5,M,11.3,M,,*40
$GPRMC,210154.00,A,3742.85079089,N,12213.32510362,E,,,23032016,,,,*36
$GPGSV,2,1,7,7,58,297,54,8,23,119,48,9,83,24,54,16,25,42,48*79
$GPGSV,2,2,7,23,55,117,54,27,24,85,48,30,32,270,48,,,,*40
$GPGSA,M,3,7,8,9,16,23,27,30,,,,,,2.26,1.34,1.81*30
$GPGGA,210155.00,3742.85079454,N,12213.32510348,E,1,07,1.34,-26.5,M,11.3,M,,*4D
$GPRMC,210155.00,A,3742.85079454,N,12213.32510348,E,,,23032016,,,,*3B
$GPGSV,2,1,7,7,58,297,54,8,23,119,48,9,83,24,54,16,25,42,48*79
$GPGSV,2,2,7,23,55,117,54,27,24,85,48,30,32,270,48,,,,*40
$GPGSA,M,3,7,8,9,16,23,27,30,,,,,,2.26,1.34,1.81*30
$GPGGA,210156.00,3742.85079215,N,12213.32509828,E,1,07,1.34,-26.5,M,11.3,M,,*48
$GPRMC,210156.00,A,3742.85079215,N,12213.32509828,E,,,23032016,,,,*3E
$GPGSV,2,1,7,7,58,297,54,8,23,119,48,9,83,24,54,16,25,42,48*79
$GPGSV,2,2,7,23,55,117,54,27,24,85,48,30,32,270,48,,,,*40
$GPGSA,M,3,7,8,9,16,23,27,30,,,,,,2.26,1.34,1.81*30
$GPGGA,210157.00,3742.85080621,N,12213.32511027,E,1,07,1.34,-26.5,M,11.3,M,,*42
$GPRMC,210157.00,A,3742.85080621,N,12213.32511027,E,,,23032016,,,,*34
$GPGSV,2,1,7,7,58,297,54,8,23,119,48,9,83,24,54,16,25,42,48*79
$GPGSV,2,2,7,23,55,117,54,27,24,85,48,30,32,270,48,,,,*40
$GPGSA,M,3,7,8,9,16,23,27,30,,,,,,2.26,1.34,1.81*30
$GPGGA,210158.00,3742.85079827,N,12213.32511025,E,1,07,1.34,-26.5,M,11.3,M,,*41
$GPRMC,210158.00,A,3742.85079827,N,12213.32511025,E,,,23032016,,,,*37
$GPGSV,2,1,7,7,58,297,54,8,23,119,48,9,83,24,54,16,25,42,48*79
$GPGSV,2,2,7,23,55,117,54,27,24,85,48,30,32,271,48,,,,*41
$GPGSA,M,3,7,8,9,16,23,27,30,,,,,,2.26,1.34,1.81*30
$GPGGA,210159.00,3742.85079647,N,12213.32510760,E,1,07,1.34,-26.5,M,11.3,M,,*4F
$GPRMC,210159.00,A,3742.85079647,N,12213.32510760,E,,,23032016,,,,*39
$GPGSV,2,1,7,7,58,297,54,8,23,119,48,9,83,25,54,16,25,42,48*78
$GPGSV,2,2,7,23,55,117,54,27,24,85,48,30,32,271,48,,,,*41
$GPGSA,M,3,7,8,9,16,23,27,30,,,,,,2.26,1.34,1.81*30
$GPGGA,210200.00,3742.85080127,N,12213.32511079,E,1,07,1.34,-26.5,M,11.3,M,,*49
$GPRMC,210200.00,A,3742.85080127,N,12213.32511079,E,,,23032016,,,,*3F
$GPGSV,2,1,7,7,58,297,54,8,23,119,48,9,83,25,54,16,25,42,48*78
$GPGSV,2,2,7,23,55,117,54,27,24,85,48,30,32,271,48,,,,*41
$GPGSA,M,3,7,8,9,16,23,27,30,,,,,,2.26,1.34,1.81*30
$GPGGA,210201.00,3742.85080115,N,12213.32510573,E,1,07,1.34,-26.5,M,11.3,M,,*47
$GPRMC,210201.00,A,3742.85080115,N,12213.32510573,E,,,23032016,,,,*31
$GPGSV,2,1,7,7,58,297,54,8,23,119,48,9,83,25,54,16,25,42,48*78
$GPGSV,2,2,7,23,55,117,54,27,24,85,48,30,32,271,48,,,,*41
$GPGSA,M,3,7,8,9,16,23,27,30,,,,,,2.26,1.34,1.81*30
$GPGGA,210202.00,3742.85080539,N,12213.32510391,E,1,07,1.34,-26.5,M,11.3,M,,*44
$GPRMC,210202.00,A,3742.85080539,N,12213.32510391,E,,,23032016,,,,*32
$GPGSV,2,1,7,7,58,297,54,8,23,119,48,9,83,25,54,16,25,42,48*78
$GPGSV,2,2,7,23,55,117,54,27,24,85,48,30,32,271,48,,,,*41
$GPGSA,M,3,7,8,9,16,23,27,30,,,,,,2.26,1.34,1.81*30
$GPGGA,210203.00,3742.85080870,N,12213.32511066,E,1,07,1.34,-26.4,M,11.3,M,,*4E
$GPRMC,210203.00,A,3742.85080870,N,12213.32511066,E,,,23032016,,,,*39
$GPGSV,2,1,7,7,58,297,54,8,24,119,48,9,83,25,54,16,25,42,48*7F
$GPGSV,2,2,7,23,55,117,54,27,24,85,48,30,32,271,48,,,,*41
$GPGSA,M,3,7,8,9,16,23,27,30,,,,,,2.26,1.34,1.81*30
$GPGGA,210204.00,3742.85081483,N,12213.32511125,E,1,07,1.34,-26.4,M,11.3,M,,*4E
$GPRMC,210204.00,A,3742.85081483,N,12213.32511125,E,,,23032016,,,,*39
$GPGSV,2,1,7,7,58,297,54,8,24,119,48,9,83,25,54,16,25,42,48*7F
$GPGSV,2,2,7,23,55,117,54,27,24,85,48,30,32,271,48,,,,*41
$GPGSA,M,3,7,8,9,16,23,27,30,,,,,,2.26,1.34,1.81*30
$GPGGA,210205.00,3742.85081851,N,12213.32510691,E,1,07,1.34,-26.5,M,11.3,M,,*44
$GPRMC,210205.00,A,3742.85081851,N,12213.32510691,E,,,23032016,,,,*32
$GPGSV,2,1,7,7,58,297,54,8,24,119,48,9,83,25,54,16,24,42,48*7E
$GPGSV,2,2,7,23,55,117,54,27,24,85,48,30,32,271,48,,,,*41
$GPGSA,M,3,7,8,9,16,23,27,30,,,,,,2.26,1.34,1.81*30
$GPGGA,210206.00,3742.85081635,N,12213.32510979,E,1,07,1.34,-26.4,M,11.3,M,,*43
$GPRMC,210206.00,A,3742.85081635,N,12213.32510979,E,,,23032016,,,,*34
$GPGSV,2,1,7,7,58,297,54,8,24,119,48,9,83,25,54,16,24,42,48*7E
$GPGSV,2,2,7,23,55,117,54,27,24,85,48,30,32,271,48,,,,*41
$GPGSA,M,3,7,8,9,16,23,27,30,,,,,,2.26,1.34,1.81*30
$GPGGA,210207.00,3742.85082253,N,12213.32510478,E,1,07,1.34,-26.4,M,11.3,M,,*49
$GPRMC,210207.00,A,3742.85082253,N,12213.32510478,E,,,23032016,,,,*3E
$GPGSV,2,1,7,7,58,297,54,8,24,119,48,9,83,25,54,16,24,42,48*7E
$GPGSV,2,2,7,23,55,117,54,27,24,85,48,30,32,271,48,,,,*41
$GPGSA,M,3,7,8,9,16,23,27,30,,,,,,2.26,1.34,1.81*30
$GPGGA,210208.00,3742.85082969,N,12213.32510732,E,1,07,1.34,-26.4,M,11.3,M,,*49
$GPRMC,210208.00,A,3742.85082969,N,12213.32510732,E,,,23032016,,,,*3E
$GPGSV,2,1,7,7,58,297,54,8,24,119,48,9,83,25,54,16,24,42,48*7E
$GPGSV,2,2,7,23,55,117,54,27,24,85,48,30,32,271,48,,,,*41
$GPGSA,M,3,7,8,9,16,23,27,30,,,,,,2.26,1.34,1.82*33
$GPGGA,210209.00,3742.85083830,N,12213.32511237,E,1,07,1.34,-26.4,M,11.3,M,,*45
$GPRMC,210209.00,A,3742.85083830,N,12213.32511237,E,,,23032016,,,,*32
$GPGSV,2,1,7,7,58,297,54,8,24,119,48,9,83,25,54,16,24,42,48*7E
$GPGSV,2,2,7,23,55,117,54,27,24,85,48,30,32,271,48,,,,*41
$GPGSA,M,3,7,8,9,16,23,27,30,,,,,,2.26,1.34,1.82*33
$GPGGA,210210.00,3742.85082710,N,12213.32511251,E,1,07,1.35,-26.4,M,11.3,M,,*40
$GPRMC,210210.00,A,3742.85082710,N,12213.32511251,E,,,23032016,,,,*36
$GPGSV,2,1,7,7,58,297,54,8,24,119,48,9,83,25,54,16,24,42,48*7E
$GPGSV,2,2,7,23,55,117,54,27,24,85,48,30,32,271,48,,,,*41
$GPGSA,M,3,7,8,9,16,23,27,30,,,,,,2.26,1.35,1.82*32
$GPGGA,210211.00,3742.85083160,N,12213.32511358,E,1,07,1.35,-26.4,M,11.3,M,,*49
$GPRMC,210211.00,A,3742.85083160,N,12213.32511358,E,,,23032016,,,,*3F
$GPGSV,2,1,7,7,58,297,54,8,24,119,48,9,83,25,54,16,24,42,48*7E
$GPGSV,2,2,7,23,55,117,54,27,24,85,48,30,32,271,48,,,,*41
$GPGSA,M,3,7,8,9,16,23,27,30,,,,,,2.26,1.35,1.82*32
$GPGGA,210212.00,3742.85083956,N,12213.32510866,E,1,07,1.35,-26.4,M,11.3,M,,*40
$GPRMC,210212.00,A,3742.85083956,N,12213.32510866,E,,,23032016,,,,*36
$GPGSV,2,1,7,7,58,297,54,8,24,119,48,9,83,25,54,16,24,42,48*7E
$GPGSV,2,2,7,23,55,117,54,27,24,85,48,30,32,271,48,,,,*41
$GPGSA,M,3,7,8,9,16,23,27,30,,,,,,2.26,1.35,1.82*32
$GPGGA,210213.00,3742.85084512,N,12213.32511521,E,1,07,1.35,-26.4,M,11.3,M,,*45
$GPRMC,210213.00,A,3742.85084512,N,12213.32511521,E,,,23032016,,,,*33
$GPGSV,2,1,7,7,58,297,54,8,24,119,48,9,83,25,54,16,24,42,48*7E
$GPGSV,2,2,7,23,55,117,54,27,24,85,48,30,32,271,48,,,,*41
$GPGSA,M,3,7,8,9,16,23,27,30,,,,,,2.26,1.35,1.82*32
$GPGGA,210214.00,3742.85084729,N,12213.32511135,E,1,07,1.35,-26.4,M,11.3,M,,*49
$GPRMC,210214.00,A,3742.85084729,N,12213.32511135,E,,,23032016,,,,*3F
$GPGSV,2,1,7,7,58,297,54,8,24,119,48,9,83,25,54,16,24,42,48*7E
$GPGSV,2,2,7,23,55,117,54,27,24,85,48,30,32,271,48,,,,*41
$GPGSA,M,3,7,8,9,16,23,27,30,,,,,,2.26,1.35,1.82*32
$GPGGA,210215.00,3742.85085277,N,12213.32510975,E,1,07,1.35,-26.4,M,11.3,M,,*4A
$GPRMC,210215.00,A,3742.85085277,N,12213.32510975,E,,,23032016,,,,*3C
$GPGSV,2,1,7,7,58,297,54,8,24,119,48,9,83,25,54,16,24,42,48*7E
$GPGSV,2,2,7,23,55,117,54,27,24,85,48,30,32,271,48,,,,*41
$GPGSA,M,3,7,8,9,16,23,27,30,,,,,,2.26,1.35,1.82*32
$GPGGA,210216.00,3742.85086084,N,12213.32511351,E,1,07,1.35,-26.4,M,11.3,M,,*49
$GPRMC,210216.00,A,3742.85086084,N,12213.32511351,E,,,23032016,,,,*3F
$GPGSV,2,1,7,7,58,297,54,8,24,119,48,9,83,26,54,16,24,42,48*7D
$GPGSV,2,2,7,23,55,117,54,27,24,85,48,30,32,271,48,,,,*41
$GPGSA,M,3,7,8,9,16,23,27,30,,,,,,2.26,1.35,1.82*32
$GPGGA,210217.00,3742.85085897,N,12213.32511188,E,1,07,1.35,-26.4,M,11.3,M,,*47
$GPRMC,210217.00,A,3742.85085897,N,12213.32511188,E,,,23032016,,,,*31
$GPGSV,2,1,7,7,58,297,54,8,24,119,48,9,83,26,54,16,24,42,48*7D
$GPGSV,2,2,7,23,55,117,54,27,24,85,48,30,32,271,48,,,,*41
$GPGSA,M,3,7,8,9,16,23,27,30,,,,,,2.26,1.35,1.82*32
$GPGGA,210218.00,3742.85086024,N,12213.32511907,E,1,07,1.35,-26.4,M,11.3,M,,*44
$GPRMC,210218.00,A,3742.85086024,N,12213.32511907,E,,,23032016,,,,*32
$GPGSV,2,1,7,7,58,297,54,8,24,119,48,9,83,26,54,16,24,42,48*7D
$GPGSV,2,2,7,23,55,117,54,27,24,85,48,30,32,271,48,,,,*41
$GPGSA,M,3,7,8,9,16,23,27,30,,,,,,2.26,1.35,1.82*32
$GPGGA,210219.00,3742.85084288,N,12213.32512267,E,1,07,1.35,-26.4,M,11.3,M,,*4D
$GPRMC,210219.00,A,3742.85084288,N,12213.32512267,E,,,23032016,,,,*3B
$GPGSV,2,1,7,7,58,297,54,8,24,119,48,9,83,26,54,16,24,42,48*7D
$GPGSV,2,2,7,23,55,117,54,27,24,85,48,30,32,271,48,,,,*41
$GPGSA,M,3,7,8,9,16,23,27,30,,,,,,2.26,1.35,1.82*32
$GPGGA,210220.00,3742.85085295,N,12213.32512469,E,1,07,1.35,-26.4,M,11.3,M,,*42
$GPRMC,210220.00,A,3742.85085295,N,12213.32512469,E,,,23032016,,,,*34
$GPGSV,2,1,7,7,58,297,54,8,24,119,48,9,83,26,54,16,24,42,48*7D
$GPGSV,2,2,7,23,55,117,54,27,24,85,48,30,32,271,48,,,,*41
$GPGSA,M,3,7,8,9,16,23,27,30,,,,,,2.26,1.35,1.82*32
$GPGGA,210221.00,3742.85085217,N,12213.32512517,E,1,07,1.35,-26.4,M,11.3,M,,*41
$GPRMC,210221.00,A,3742.85085217,N,12213.32512517,E,,,23032016,,,,*37
$GPGSV,2,1,7,7,58,297,54,8,24,119,48,9,83,26,54,16,24,42,48*7D
$GPGSV,2,2,7,23,55,117,54,27,24,85,48,30,32,271,48,,,,*41
$GPGSA,M,3,7,8,9,16,23,27,30,,,,,,2.26,1.35,1.82*32
$GPGGA,210222.00,3742.85085143,N,12213.32512689,E,1,07,1.35,-26.4,M,11.3,M,,*44
$GPRMC,210222.00,A,3742.85085143,N,12213.32512689,E,,,23032016,,,,*32
$GPGSV,2,1,7,7,58,297,54,8,24,119,48,9,83,26,54,16,24,42,48*7D
$GPGSV,2,2,7,23,55,117,54,27,24,85,48,30,32,271,48,,,,*41
$GPGSA,M,3,7,8,9,16,23,27,30,,,,,,2.26,1.35,1.82*32
$GPGGA,210223.00,3742.85085291,N,12213.32512920,E,1,07,1.35,-26.4,M,11.3,M,,*45
$GPRMC,210223.00,A,3742.85085291,N,12213.32512920,E,,,23032016,,,,*33
$GPGSV,2,1,7,7,58,297,54,8,24,119,48,9,83,26,54,16,24,42,48*7D
$GPGSV,2,2,7,23,55,117,54,27,24,85,48,30,32,271,48,,,,*41
$GPGSA,M,3,7,8,9,16,23,27,30,,,,,,2.26,1.35,1.82*32
$GPGGA,210224.00,3742.85085342,N,12213.32512519,E,1,07,1.35,-26.4,M,11.3,M,,*4B
$GPRMC,210224.00,A,3742.85085342,N,12213.32512519,E,,,23032016,,,,*3D
$GPGSV,2,1,7,7,58,297,54,8,24,119,48,9,83,26,54,16,24,42,48*7D
$GPGSV,2,2,7,23,55,117,54,27,24,85,48,30,32,271,48,,,,*41
$GPGSA,M,3,7,8,9,16,23,27,30,,,,,,2.26,1.35,1.82*32
$GPGGA,210225.00,3742.85083518,N,12213.32513246,E,1,07,1.35,-26.4,M,11.3,M,,*49
$GPRMC,210225.00,A,3742.85083518,N,12213.32513246,E,,,23032016,,,,*3F
$GPGSV,2,1,7,7,58,297,54,8,24,119,48,9,83,26,54,16,24,42,48*7D
$GPGSV,2,2,7,23,55,117,54,27,24,85,48,30,32,271,48,,,,*41
$GPGSA,M,3,7,8,9,16,23,27,30,,,,,,2.26,1.35,1.82*32
$GPGGA,210226.00,3742.85084210,N,12213.32513222,E,1,07,1.35,-26.4,M,11.3,M,,*40
$GPRMC,210226.00,A,3742.85084210,N,12213.32513222,E,,,23032016,,,,*36
$GPGSV,2,1,7,7,58,297,54,8,24,119,48,9,83,26,54,16,24,42,48*7D
$GPGSV,2,2,7,23,55,117,54,27,24,85,48,30,32,271,48,,,,*41
$GPGSA,M,3,7,8,9,16,23,27,30,,,,,,2.26,1.35,1.82*32
$GPGGA,210227.00,3742.85083717,N,12213.32513606,E,1,07,1.35,-26.4,M,11.3,M,,*46
$GPRMC,210227.00,A,3742.85083717,N,12213.32513606,E,,,23032016,,,,*30
$GPGSV,2,1,7,7,58,297,54,8,24,119,48,9,83,26,54,16,24,42,48*7D
$GPGSV,2,2,7,23,55,117,54,27,24,84,48,30,32,271,48,,,,*40
$GPGSA,M,3,7,8,9,16,23,27,30,,,,,,2.26,1.35,1.82*32
$GPGGA,210228.00,3742.85083537,N,12213.32513815,E,1,07,1.35,-26.4,M,11.3,M,,*45
$GPRMC,210228.00,A,3742.85083537,N,12213.32513815,E,,,23032016,,,,*33
$GPGSV,2,1,7,7,58,297,54,8,24,119,48,9,83,26,54,16,24,42,48*7D
$GPGSV,2,2,7,23,55,117,54,27,24,84,48,30,32,271,48,,,,*40
$GPGSA,M,3,7,8,9,16,23,27,30,,,,,,2.26,1.35,1.82*32
$GPGGA,210229.00,3742.85084248,N,12213.32513688,E,1,07,1.35,-26.4,M,11.3,M,,*46
$GPRMC,210229.00,A,3742.85084248,N,12213.32513688,E,,,23032016,,,,*30
$GPGSV,2,1,7,7,58,297,54,8,24,119,48,9,83,26,54,16,24,42,48*7D
$GPGSV,2,2,7,23,55,117,54,27,24,84,48,30,32,271,48,,,,*40
$GPGSA,M,3,7,8,9,16,23,27,30,,,,,,2.26,1.35,1.82*32
$GPGGA,210230.00,3742.85084174,N,12213.32514810,E,1,07,1.35,-26.4,M,11.3,M,,*4A
$GPRMC,210230.00,A,3742.85084174,N,12213.32514810,E,,,23032016,,,,*3C
$GPGSV,2,1,7,7,58,297,54,8,24,119,48,9,83,26,54,16,24,42,48*7D
$GPGSV,2,2,7,23,55,117,54,27,24,84,48,30,32,271,48,,,,*40
$GPGSA,M,3,7,8,9,16,23,27,30,,,,,,2.26,1.35,1.82*32
$GPGGA,210231.00,3742.85083187,N,12213.32514733,E,1,07,1.35,-26.4,M,11.3,M,,*4E
$GPRMC,210231.00,A,3742.85083187,N,12213.32514733,E,,,23032016,,,,*38
$GPGSV,2,1,7,7,58,297,54,8,24,119,48,9,83,26,54,16,24,42,48*7D
$GPGSV,2,2,7,23,55,117,54,27,24,84,48,30,32,271,48,,,,*40
$GPGSA,M,3,7,8,9,16,23,27,30,,,,,,2.26,1.35,1.82*32
$GPGGA,210232.00,3742.85083008,N,12213.32515348,E,1,07,1.35,-26.4,M,11.3,M,,*42
$GPRMC,210232.00,A,3742.85083008,N,12213.32515348,E,,,23032016,,,,*34
$GPGSV,2,1,7,7,58,297,54,8,24,119,48,9,83,27,54,16,24,42,48*7C
$GPGSV,2,2,7,23,55,117,54,27,24,84,48,30,32,271,48,,,,*40
$GPGSA,M,3,7,8,9,16,23,27,30,,,,,,2.26,1.35,1.82*32
$GPGGA,210233.00,3742.85082167,N,12213.32515504,E,1,07,1.35,-26.4,M,11.3,M,,*44
$GPRMC,210233.00,A,3742.85082167,N,12213.32515504,E,,,23032016,,,,*32
$GPGSV,2,1,7,7,58,297,54,8,24,119,48,9,83,27,54,16,24,42,48*7C
$GPGSV,2,2,7,23,55,117,54,27,24,84,48,30,32,271,48,,,,*40
$GPGSA,M,3,7,8,9,16,23,27,30,,,,,,2.26,1.35,1.82*32
$GPGGA,210234.00,3742.85081885,N,12213.32515731,E,1,07,1.35,-26.4,M,11.3,M,,*41
$GPRMC,210234.00,A,3742.85081885,N,12213.32515731,E,,,23032016,,,,*37
$GPGSV,2,1,7,7,58,297,54,8,24,119,48,9,83,27,54,16,24,42,48*7C
$GPGSV,2,2,7,23,55,117,54,27,24,84,48,30,32,271,48,,,,*40
$GPGSA,M,3,7,8,9,16,23,27,30,,,,,,2.26,1.35,1.82*32
$GPGGA,210235.00,3742.85082454,N,12213.32515637,E,1,07,1.35,-26.4,M,11.3,M,,*44
$GPRMC,210235.00,A,3742.85082454,N,12213.32515637,E,,,23032016,,,,*32
$GPGSV,2,1,7,7,58,297,54,8,24,119,48,9,83,27,54,16,24,42,48*7C
$GPGSV,2,2,7,23,55,117,54,27,24,84,48,30,32,271,48,,,,*40
$GPGSA,M,3,7,8,9,16,23,27,30,,,,,,2.27,1.35,1.82*33
$GPGGA,210236.00,3742.85081707,N,12213.32516169,E,1,07,1.35,-26.4,M,11.3,M,,*4E
$GPRMC,210236.00,A,3742.85081707,N,12213.32516169,E,,,23032016,,,,*38
$GPGSV,2,1,7,7,58,297,54,8,24,119,48,9,83,27,54,16,24,42,48*7C
$GPGSV,2,2,7,23,55,117,54,27,24,84,48,30,32,271,48,,,,*40
$GPGSA,M,3,7,8,9,16,23,27,30,,,,,,2.27,1.35,1.82*33
$GPGGA,210237.00,3742.85081944,N,12213.32516467,E,1,07,1.35,-26.4,M,11.3,M,,*4D
$GPRMC,210237.00,A,3742.85081944,N,12213.32516467,E,,,23032016,,,,*3B
$GPGSV,2,1,7,7,58,297,54,8,24,119,48,9,83,27,54,16,24,42,48*7C
$GPGSV,2,2,7,23,55,117,54,27,24,84,48,30,32,271,48,,,,*40
$GPGSA,M,3,7,8,9,16,23,27,30,,,,,,2.27,1.35,1.82*33
$GPGGA,210238.00,3742.85081477,N,12213.32516655,E,1,07,1.35,-26.4,M,11.3,M,,*4C
$GPRMC,210238.00,A,3742.85081477,N,12213.32516655,E,,,23032016,,,,*3A
$GPGSV,2,1,7,7,58,297,54,8,24,119,48,9,83,27,54,16,24,42,48*7C
$GPGSV,2,2,7,23,55,117,54,27,24,84,48,30,32,271,48,,,,*40
$GPGSA,M,3,7,8,9,16,23,27,30,,,,,,2.27,1.35,1.82*33
$GPGGA,210239.00,3742.85080077,N,12213.32517463,E,1,07,1.35,-26.4,M,11.3,M,,*4E
$GPRMC,210239.00,A,3742.85080077,N,12213.32517463,E,,,23032016,,,,*38
$GPGSV,2,1,7,7,58,297,54,8,24,119,48,9,83,27,54,16,24,42,48*7C
$GPGSV,2,2,7,23,55,117,54,27,24,84,48,30,32,271,48,,,,*40
$GPGSA,M,3,7,8,9,16,23,27,30,,,,,,2.27,1.35,1.82*33
$GPGGA,210240.00,3742.85080058,N,12213.32517089,E,1,07,1.35,-26.4,M,11.3,M,,*4D
$GPRMC,210240.00,A,3742.85080058,N,12213.32517089,E,,,23032016,,,,*3B
$GPGSV,2,1,7,7,58,297,54,8,24,119,48,9,83,27,54,16,24,42,48*7C
$GPGSV,2,2,7,23,55,117,54,27,24,84,48,30,32,271,48,,,,*40
$GPGSA,M,3,7,8,9,16,23,27,30,,,,,,2.27,1.35,1.82*33
$GPGGA,210241.00,3742.85079279,N,12213.32517940,E,1,07,1.35,-26.4,M,11.3,M,,*47
$GPRMC,210241.00,A,3742.85079279,N,12213.32517940,E,,,23032016,,,,*31
$GPGSV,2,1,7,7,58,297,54,8,24,119,48,9,83,27,54,16,24,42,48*7C
$GPGSV,2,2,7,23,55,117,54,27,24,84,48,30,32,271,48,,,,*40
$GPGSA,M,3,7,8,9,16,23,27,30,,,,,,2.27,1.35,1.82*33
$GPGGA,210242.00,3742.85077534,N,12213.32518275,E,1,07,1.35,-26.5,M,11.3,M,,*47
$GPRMC,210242.00,A,3742.85077534,N,12213.32518275,E,,,23032016,,,,*30
$GPGSV,2,1,7,7,58,297,54,8,24,119,48,9,83,27,54,16,24,42,48*7C
$GPGSV,2,2,7,23,55,117,54,27,24,84,48,30,32,271,48,,,,*40
$GPGSA,M,3,7,8,9,16,23,27,30,,,,,,2.27,1.35,1.82*33
$GPGGA,210243.00,3742.85078794,N,12213.32518501,E,1,07,1.35,-26.5,M,11.3,M,,*45
$GPRMC,210243.00,A,3742.85078794,N,12213.32518501,E,,,23032016,,,,*32
$GPGSV,2,1,7,7,58,297,54,8,24,119,48,9,83,27,54,16,24,42,48*7C
$GPGSV,2,2,7,23,55,117,54,27,24,84,48,30,32,271,48,,,,*40
$GPGSA,M,3,7,8,9,16,23,27,30,,,,,,2.27,1.35,1.82*33
$GPGGA,210244.00,3742.85078003,N,12213.32518472,E,1,07,1.35,-26.5,M,11.3,M,,*4E
$GPRMC,210244.00,A,3742.85078003,N,12213.32518472,E,,,23032016,,,,*39
$GPGSV,2,1,7,7,58,297,54,8,24,119,48,9,83,27,54,16,24,42,48*7C
$GPGSV,2,2,7,23,55,117,54,27,24,84,48,30,32,271,48,,,,*40
$GPGSA,M,3,7,8,9,16,23,27,30,,,,,,2.27,1.35,1.82*33
$GPGGA,210245.00,3742.85077362,N,12213.32518470,E,1,07,1.35,-26.5,M,11.3,M,,*46
$GPRMC,210245.00,A,3742.85077362,N,12213.32518470,E,,,23032016,,,,*31
$GPGSV,2,1,7,7,58,297,54,8,24,118,48,9,83,27,54,16,24,42,48*7D
$GPGSV,2,2,7,23,55,117,54,27,24,84,48,30,32,271,48,,,,*40
