     3.02           OBSERVATION DATA    M (MIXED)           RINEX VERSION / TYPE
NetR9 4.80          Receiver Operator   15-JUN-13 00:00:00  PGM / RUN BY / DATE
GMSD                                                        MARKER NAME
21749S002                                                   MARKER NUMBER
GEODETIC                                                    MARKER TYPE
GMSD                JAXA                                    OBSERVER / AGENCY
5049K72188          TRIMBLE NETR9       4.80                REC # / TYPE / VERS
4938353448          TRM59800.00     SCIS                    ANT # / TYPE
 -3607665.3832  4147868.2600  3223717.2637                  APPROX POSITION XYZ
        0.0000        0.0000        0.0000                  ANTENNA: DELTA H/E/N
G   12 C1C L1C S1C C2W L2W S2W C2X L2X S2X C5X L5X S5X      SYS / # / OBS TYPES
       L6X S6X                                              SYS / # / OBS TYPES
    30.000                                                  INTERVAL
  2013     6    15     4     0    0.0000000     GPS         TIME OF FIRST OBS
G L2X -0.25000                                              SYS / PHASE SHIFT
GIOVE-A if present is mapped to satellite ID 51             COMMENT
GIOVE-B if present is mapped to satellite ID 52             COMMENT
DBHZ                                                        SIGNAL STRENGTH UNIT
                                                            END OF HEADER
> 2013  6 15  4  0  0.0000000  0 32
G21  25112295.359 5 131966023.234 5        33.900    25112311.836 2 102830710.57242        13.900
G16  21770214.141 8 114403352.013 8        49.200    21770223.160 6  89145537.95846        36.400
G31  20898690.969 8 109823617.733 8        52.000    20898699.059 7  85576759.12647        43.800    20898699.066 8  85576761.119 8        49.500
G25  25027628.094 5 131521070.909 5        33.600    25027643.137 2 102484003.45142        16.900    25027644.031 6 102484003.454 6        36.400    25027645.512 6  98213830.219 6        40.600
G03  24851136.570 6 130593620.033 6        38.600    24851153.461 3 101761351.17743        19.300
G32  24209932.031 6 127224039.721 6        40.800    24209944.496 3  99135676.39943        23.800
G20  24900453.680 6 130852749.611 6        37.200    24900466.586 3 101963227.43543        18.600
G14  21969332.820 7 115449587.466 7        45.800    21969342.715 5  89960815.51045        33.600
G29  22362843.281 7 117517589.360 7        46.300    22362853.098 5  91572222.32045        35.800    22362853.008 7  91572216.311 7        43.700
G23  25044043.844 6 131607353.684 6        39.200    25044054.121 3 102551220.08543        20.100
G06  22833583.055 7 119991366.984 7        43.800    22833594.934 4  93499872.17444        28.700
> 2013  6 15  4  0 30.0000000  0 32
G21  25102960.992 5 131916969.179 5        33.100    25102976.102 2 102792486.71442        14.800
G16  21760809.867 8 114353930.992 8        49.800    21760818.625 6  89107028.12446        36.800
G31  20898315.141 8 109821644.386 8        52.000    20898324.102 7  85575221.44947        43.700    20898323.656 8  85575223.443 8        50.300
G25  25044447.56315 131609453.27315        31.900    25044462.21512 102552872.77052        16.300    25044461.89815 102552872.81615        35.500    25044463.06616  98279829.98716        41.100
G03  24828800.648 5 130476254.225 5        34.300    24828819.078 2 101669897.76142        17.400
G32  24217940.070 6 127266120.277 6        41.100    24217952.652 3  99168466.33043        22.500
G20  24904491.453 6 130873967.259 6        36.400    24904504.637 3 101979760.52443        19.300
G14  21986515.422 7 115539885.813 7        44.500    21986526.484 5  90031177.78645        34.000
G29  22374640.563 7 117579585.139 7        46.200    22374649.918 5  91620530.70645        35.500    22374650.129 7  91620524.695 7        43.600
G23  25023924.789 6 131501627.944 6        37.900    25023934.715 2 102468836.53942        17.800
G06  22813272.094 7 119884634.008 7        43.800    22813284.734 4  93416703.73244        28.500
> 2013  6 15  4  1  0.0000000  0 32
G21  25093627.078 5 131867924.948 5        34.900    25093642.41412 102754270.49552        16.300
G16  21751468.469 8 114304844.836 8        49.400    21751477.789 6  89068779.20746        37.100
G31  20897976.148 8 109819862.746 8        51.600    20897984.387 7  85573833.14347        44.000    20897984.344 8  85573835.144 8        49.700
G25  25061250.242 5 131697746.921 5        35.600    25061263.535 2 102621672.94642        17.400    25061263.766 5 102621672.955 5        34.300    25061264.855 6  98345763.463 6        41.400
G03  24806469.406 6 130358896.035 6        37.300    24806485.828 3 101578450.32443        18.300
G32  24226002.742 6 127308492.109 6        40.900    24226015.457 3  99201483.21143        22.800
G20  24908602.164 5 130895570.106 5        34.000    24908615.711 3 101996593.87643        20.100
G14  22003764.109 7 115630525.901 7        44.500    22003774.637 5  90101806.34145        32.800
G29  22386526.867 7 117642048.605 7        45.200    22386536.906 5  91669203.51145        35.200    22386536.820 7  91669197.502 7        43.700
G23  25003830.375 6 131396028.636 6        40.300    25003839.887 3 102386551.47243        19.000
G06  22792999.773 7 119778103.510 7        43.400    22793012.566 4  93333693.08844        28.300
> 2013  6 15  4  1 30.0000000  0 33
G21  25084296.219 5 131818891.318 5        35.700    25084311.070 2 102716062.55842        16.900
G16  21742191.320 8 114256091.742 8        49.700    21742200.211 6  89030789.83246        37.000
G31  20897673.594 8 109818272.418 8        51.100    20897681.746 7  85572593.91747        43.900    20897681.684 8  85572595.918 8        49.200
G25  25078032.54715 131785949.57315        32.000    25078049.11712 102690402.24252        16.900    25078048.48415 102690402.25915        35.800    25078049.73816  98411629.03116        41.100
G03  24784138.352 6 130241546.324 6        39.000    24784155.590 3 101487009.45343        20.600
G32  24234121.008 6 127351151.325 6        40.600    24234133.363 3  99234724.07043        22.900
G20  24912786.20315 130917554.99415        35.100    24912799.40213 102013724.87253        19.900
G14  22021076.828 7 115721503.753 7        45.200    22021086.922 5  90172698.09445        33.700
G29  22398501.844 7 117704976.256 7        47.000    22398511.348 5  91718238.01545        35.500    22398511.281 7  91718232.007 7        44.000
G23  24983759.492 6 131290557.055 6        40.700    24983768.191 3 102304365.88443        19.000
G06  22772766.805 7 119671776.787 7        43.400    22772779.176 4  93250841.20844        28.400
> 2013  6 15  4  2  0.0000000  0 32
G21  25074968.477 6 131769871.469 6        36.200    25074983.055 2 102677865.38242        17.400
G16  21732977.250 8 114207671.950 8        50.200    21732986.223 6  88993060.17046        36.800
G31  20897408.031 8 109816874.752 8        52.300    20897415.945 7  85571504.81547        43.600    20897415.809 8  85571506.816 8        48.600
G25  25094802.37515 131874061.20815        35.700    25094816.34412 102759060.55352        15.600    25094815.72315 102759060.60915        34.900    25094816.96116  98477426.58316        41.900
G03  24761808.773 6 130124207.582 6        38.700    24761826.074 3 101395577.13743        20.600
G32  24242293.320 6 127394096.010 6        39.800    24242305.152 4  99268187.35744        24.200
G20  24917042.078 6 130939920.389 6        38.300    24917055.855 3 102031152.36043        21.700
G14  22038453.844 7 115812817.683 7        45.800    22038463.711 5  90243851.72345        34.400
G29  22410564.938 7 117768366.439 7        45.300    22410574.633 5  91767632.94745        35.200    22410574.516 7  91767626.944 7        44.400
G23  24963712.992 6 131185216.066 6        39.000    24963723.047 3 102222282.05743        19.000
G06  22752572.859 7 119565656.874 7        43.700    22752585.082 4  93168150.49144        29.600
> 2013  6 15  4  2 30.0000000  0 33
G21  25065642.922 6 131720867.597 6        36.500    25065657.195 2 102639680.58042        16.900
G16  21723826.555 8 114159585.161 8        49.700    21723835.355 6  88955589.99246        37.200
G31  20897178.852 8 109815671.006 8        51.500    20897186.797 7  85570566.82847        43.600    20897186.277 8  85570568.822 8        49.900
G25  25111550.477 5 131962081.059 5        33.900    25111564.938 2 102827647.39642        17.400    25111565.469 5 102827647.392 5        35.200    25111566.844 7  98543155.581 7        43.400
G03  24739481.734 6 130006882.682 6        36.400    24739499.016 2 101304155.56842        17.800
G32  24250518.625 6 127437323.920 6        41.300    24250531.883 3  99301871.33343        23.500
G20  24921371.250 6 130962664.319 6        38.400    24921382.949 3 102048874.82343        20.100
G14  22055893.672 7 115904465.555 7        44.700    22055903.543 5  90315265.55445        33.600
G29  22422714.703 7 117832216.983 7        46.200    22422724.918 5  91817386.59145        34.900    22422724.922 7  91817380.586 7        44.000
G23  24943692.828 6 131080008.506 6        40.000    24943702.734 3 102140302.27943        21.300
G06  22732418.297 7 119459746.644 7        42.800    22732430.461 4  93085623.16644        29.700
> 2013  6 15  4  3  0.0000000  0 33
G21  25056322.766 6 131671883.047 6        37.500    25056335.461 2 102601510.90242        16.900
G16  21714739.422 8 114111832.215 8        49.400    21714748.266 6  88918379.94846        36.800
G31  20896986.953 8 109814663.246 8        51.300    20896995.016 7  85569781.55947        43.900    20896994.660 8  85569783.560 8        49.500
G25  25128283.914 5 132050009.322 5        35.200    25128297.918 2 102896162.90642        16.300    25128297.520 6 102896162.902 6        37.900    25128300.176 7  98608816.248 7        43.200
G03  24717157.664 5 129889574.816 5        34.800    24717175.457 2 101212747.31542        16.900
G32  24258799.289 6 127480833.390 6        41.300    24258812.160 4  99335774.70044        24.100
G20  24925771.031 6 130985785.933 6        38.400    24925783.730 3 102066891.57643        19.900
G14  22073396.969 7 115996446.015 7        44.400    22073407.090 5  90386938.54645        32.300
G29  22434952.484 7 117896526.642 7        46.700    22434962.922 5  91867497.99045        34.000    22434962.625 7  91867491.992 7        43.700
G23  24923698.188 6 130974937.684 6        40.400    24923708.082 3 102058429.03043        19.000
G06  22712304.875 7 119354050.039 7        44.200    22712317.219 4  93003262.30044        29.400
> 2013  6 15  4  3 30.0000000  0 33
G21  25047003.617 5 131622918.831 5        35.700    25047017.699 2 102563357.04742        15.600
G16  21705715.602 8 114064411.321 8        49.100    21705724.363 6  88881428.63346        36.900
G31  20896832.367 8 109813851.063 8        52.600    20896840.219 7  85569148.68447        44.400    20896840.133 8  85569150.685 8        49.300
G25  25144997.828 5 132137844.141 5        34.500    25145012.305 2 102964605.46842        17.400    25145012.207 6 102964605.500 6        38.200    25145014.973 7  98674407.054 7        44.200
G03  24694839.305 6 129772284.793 6        37.900    24694855.508 3 101121352.94243        19.300
G32  24267131.563 6 127524620.796 6        41.100    24267144.348 4  99369894.65544        25.300
G20  24930242.102 6 131009282.386 6        39.200    24930254.891 3 102085200.40443        19.600
G14  22090962.367 7 116088755.148 7        45.000    22090972.879 5  90458867.64945        32.500
G29  22447277.117 7 117961292.114 7        47.200    22447287.258 5  91917964.56845        34.200    22447286.820 7  91917958.565 7        43.900
G23  24903729.828 6 130870005.152 6        39.100    24903740.430 2 101976663.47842        17.800
G06  22692232.320 7 119248568.254 7        44.300    22692244.016 5  92921068.81745        30.000
> 2013  6 15  4  4  0.0000000  0 32
G21  25037691.797 5 131573978.571 5        34.400    25037705.098 2 102525221.87542        17.800
G16  21696754.805 8 114017323.104 8        49.700    21696763.395 6  88844736.55946        37.400
G31  20896715.234 8 109813236.397 8        51.200    20896723.277 7  85568669.72147        43.900    20896723.301 8  85568671.722 8        49.400
G25  25161691.64114 132225585.66114        29.400    25161709.37913 103032975.42353        18.300    25161708.99216 103032975.48016        37.100    25161710.93417  98739928.27717        42.700
G03  24672522.984 6 129655016.096 6        38.200    24672540.223 3 101029975.17543        20.600
G32  24275516.281 6 127568684.688 6        41.900    24275530.063 3  99404230.04243        22.800
G20  24934784.742 5 131033152.460 5        34.400    24934797.328 3 102103800.34243        19.900
G14  22108590.523 7 116181391.686 7        44.800    22108600.824 5  90531051.87645        31.600
G29  22459688.750 7 118026511.948 7        45.900    22459698.168 5  91968785.19645        33.700    22459697.938 7  91968779.194 7        43.800
G23  24883789.320 6 130765214.505 6        39.200    24883798.488 3 101895008.41543        19.000
G06  22672201.516 7 119143304.897 7        44.900    22672213.125 4  92839045.54144        29.800
> 2013  6 15  4  4 30.0000000  0 32
G21  25028383.211 5 131525064.272 5        33.300    25028396.594 2 102487106.96242        16.900
G16  21687857.484 8 113970566.851 8        49.600    21687866.387 6  88808303.15646        37.000
G31  20896636.039 8 109812820.098 8        50.700    20896644.254 7  85568345.32747        43.900    20896643.988 8  85568347.328 8        49.800
G25  25178373.00815 132313233.08615        34.300    25178388.06312 103101272.06552        17.400    25178387.67616 103101272.07616        38.800    25178389.67617  98805379.16117        43.200
G03  24650211.969 6 129537770.310 6        37.500    24650228.594 3 100938615.31543        19.300
G32  24283953.977 6 127613022.227 6        41.000    24283966.457 4  99438778.66344        25.600
G20  24939397.313 6 131057393.761 6        38.300    24939409.316 3 102122689.54443        19.000
G14  22126280.781 7 116274352.955 7        44.900    22126291.324 5  90603489.13845        32.800
G29  22472184.859 7 118092183.732 7        45.900    22472194.941 5  92019957.97545        33.900    22472194.484 7  92019951.967 7        43.900
G23  24863877.039 6 130660567.643 6        40.500    24863884.777 3 101813465.53143        19.600
G06  22652212.430 7 119038262.513 7        44.400    22652224.051 5  92757194.45745        30.000
> 2013  6 15  4  5  0.0000000  0 33
G21  25019079.813 5 131476178.141 5        35.200    25019094.688 2 102449013.92742        16.300
G16  21679022.820 8 113924141.993 8        49.900    21679032.004 6  88772127.98046        37.300
G31  20896595.023 8 109812602.767 8        51.500    20896603.445 7  85568175.97247        43.900    20896603.273 8  85568177.972 8        49.600
G25  25195033.39815 132400785.29015        33.400    25195048.53912 103169494.50952        17.800    25195047.83216 103169494.50516        37.800    25195049.85917  98870758.96917        42.800
G03  24627904.398 6 129420549.733 6        37.100    24627921.402 3 100847275.05343        19.000
G32  24292443.250 7 127657630.684 7        42.400    24292455.242 4  99473538.40044        25.400
G20  24944080.477 6 131082004.242 6        37.900    24944092.855 3 102141866.48643        18.600
G14  22144032.320 7 116367635.990 7        44.900    22144042.781 5  90676177.11845        32.500
G29  22484767.484 7 118158305.120 7        46.700    22484777.453 5  92071481.11345        34.400    22484777.262 7  92071475.103 7        44.000
G23  24843990.094 6 130556067.167 6        38.100    24843999.758 3 101732036.64243        19.600
G06  22632266.242 7 118933443.511 7        44.100    22632277.574 5  92675517.42845        30.300
> 2013  6 15  4  5 30.0000000  0 32
G21  25009783.375 6 131427322.248 6        36.800    25009796.848 2 102410944.53642        16.900
G16  21670251.766 8 113878047.890 8        51.000    21670260.594 6  88736210.53746        37.600
G31  20896591.688 8 109812585.321 8        51.600    20896599.746 7  85568162.37047        43.800    20896599.508 8  85568164.371 8        49.600
G25  25211677.758 6 132488241.354 6        37.100    25211690.773 3 103237642.00143        18.600    25211690.508 6 103237642.019 6        36.600    25211691.918 6  98936066.996 6        41.500
G03  24605603.234 6 129303356.427 6        38.700    24605619.035 3 100755956.03243        18.600
G32  24300982.445 7 127702507.272 7        42.000    24300995.973 4  99508507.04144        25.000
G20  24948834.336 6 131106981.557 6        38.300    24948845.832 3 102161329.23143        19.900
G14  22161843.836 7 116461238.341 7        45.100    22161855.004 5  90749113.91045        32.700
G29  22497434.953 7 118224873.383 7        45.800    22497445.426 5  92123352.46145        33.900    22497444.859 7  92123346.445 7        43.200
G23  24824132.352 6 130451715.186 6        38.300    24824142.289 3 101650723.51343        18.600
G06  22612362.820 7 118828850.213 7        44.100    22612373.926 4  92594016.25744        29.400
> 2013  6 15  4  6  0.0000000  0 33
G21  25000492.242 6 131378499.656 6        36.400    25000507.266 2 102372901.02242        16.900
G16  21661543.305 8 113832284.810 8        49.700    21661552.516 6  88700551.04546        37.400
G31  20896626.391 8 109812769.364 8        52.100    20896634.242 7  85568305.76947        44.600    20896634.070 8  85568307.770 8        49.900
G25  25228300.953 5 132575601.346 5        34.300    25228314.477 2 103305714.66942        16.900    25228315.027 5 103305714.674 5        35.900    25228316.090 6  99001303.299 6        40.500
G03  24583307.984 6 129186193.044 6        37.300    24583323.781 3 100664660.27743        19.900
G32  24309572.992 7 127747650.168 7        42.400    24309586.586 4  99543683.22344        25.600
G20  24953655.773 6 131132324.023 6        37.700    24953668.996 3 102181076.50943        19.300
G14  22179716.891 7 116555158.441 7        45.100    22179727.793 5  90822298.29845        32.700
G29  22510187.422 7 118291886.913 7        46.700    22510197.395 5  92175570.76445        34.300    22510196.898 7  92175564.753 7        43.100
G23  24804304.641 6 130347515.046 6        40.800    24804313.910 3 101569528.66843        21.700
G06  22592502.156 7 118724486.020 7        43.800    22592514.250 5  92512693.60945        30.500
> 2013  6 15  4  6 30.0000000  0 33
G21  24991209.086 6 131329712.943 6        36.100    24991223.668 3 102334885.49643        18.300
G16  21652897.547 8 113786852.324 8        50.200    21652906.516 6  88665149.14346        37.700
G31  20896700.406 8 109813156.140 8        52.100    20896708.344 7  85568607.15847        44.000    20896708.191 8  85568609.151 8        49.600
G25  25244906.844 5 132662864.787 5        35.700    25244920.172 2 103373712.09842        15.600    25244920.813 5 103373712.154 5        35.000    25244922.488 6  99066467.527 6        40.500
G03  24561017.188 5 129069062.222 5        35.200    24561035.047 3 100573390.00543        19.300
G32  24318213.258 6 127793057.046 6        41.000    24318227.109 3  99579065.06543        23.600
G20  24958548.469 5 131158030.291 5        35.200    24958560.672 3 102201107.26143        19.900
G14  22197649.328 7 116649394.085 7        45.700    22197660.047 5  90895728.56245        33.000
G29  22523024.008 7 118359344.065 7        46.500    22523034.008 5  92228134.76545        34.100    22523033.789 7  92228128.747 7        43.000
G23  24784504.758 6 130243469.625 6        39.000    24784514.590 3 101488454.41943        19.600
G06  22572686.586 7 118620353.958 7        44.600    22572698.266 5  92431551.84145        30.400
> 2013  6 15  4  7  0.0000000  0 32
G21  24981931.438 6 131280964.409 6        36.300    24981947.238 2 102296899.67742        17.400
G16  21644314.844 8 113741749.991 8        50.200    21644323.703 6  88630004.51746        37.200
G31  20896812.719 8 109813746.906 8        51.500    20896820.590 7  85569067.48447        43.700    20896820.535 8  85569069.478 8        49.600
G25  25261492.938 5 132750031.084 5        34.700    25261508.047 2 103441633.90242        16.900    25261507.926 6 103441633.876 6        36.600    25261509.191 6  99131559.163 6        41.800
G03  24538735.094 6 128951966.484 6        38.100    24538751.750 3 100482147.05343        22.000
G32  24326904.508 6 127838725.546 6        41.600    24326917.180 3  99614650.79543        23.200
G20  24963509.078 5 131184098.365 5        33.900    24963521.586 3 102221419.91443        18.600
G14  22215641.422 7 116743942.697 7        45.200    22215652.215 5  90969402.70445        32.700
G29  22535944.938 7 118427242.003 7        47.100    22535954.801 5  92281042.22345        34.100    22535954.402 7  92281036.206 7        42.800
G23  24764734.094 6 130139581.954 6        38.800    24764744.699 3 101407503.02143        18.600
G06  22552915.031 7 118516456.569 7        44.600    22552927.148 5  92350592.93445        31.300
> 2013  6 15  4  7 30.0000000  0 32
G21  24972663.438 6 131232256.606 6        37.200    24972678.625 2 102258945.66042        17.400
G16  21635795.141 8 113696977.580 8        50.300    21635803.695 6  88595116.96046        37.800
G31  20896964.359 8 109814542.430 8        51.500    20896972.348 7  85569687.36147        43.800    20896972.285 8  85569689.361 8        49.800
G25  25278061.219 5 132837099.424 5        31.200    25278076.621 2 103509479.29342        15.600    25278076.910 6 103509479.291 6        36.000    25278078.410 6  99196577.681 6        41.100
G03  24516459.883 6 128834907.793 6        38.800    24516475.340 3 100390932.91743        20.100
G32  24335643.711 6 127884653.039 6        41.000    24335657.215 4  99650438.33644        24.900
G20  24968538.164 6 131210525.834 6        36.600    24968550.809 3 102242012.66843        18.300
G14  22233692.375 7 116838801.812 7        45.800    22233703.469 5  91043318.79145        32.600
G29  22548949.078 7 118495579.011 7        46.800    22548958.691 5  92334291.79545        34.200    22548958.504 7  92334285.777 7        42.600
G23  24744996.188 6 130035853.782 6        39.700    24745006.074 3 101326675.99643        20.400
G06  22533189.570 7 118412796.545 7        45.000    22533201.754 5  92269818.98145        30.400
> 2013  6 15  4  8  0.0000000  0 32
G21  24963402.852 5 131183591.025 5        35.000    24963416.191 2 102221024.50742        15.600
G16  21627337.492 8 113652533.936 8        49.900    21627346.199 6  88560485.58146        37.500
G31  20897154.313 8 109815542.940 8        53.100    20897162.613 7  85570466.96847        44.300    20897162.371 8  85570468.969 8        50.200
G25  25294611.141 5 132924068.703 5        31.800    25294626.520 2 103577247.48042        15.600    25294626.492 6 103577247.513 6        36.900    25294628.309 7  99261522.196 7        42.200
G03  24494190.836 6 128717887.928 6        37.800    24494206.102 2 100299748.98142        17.800
G32  24344432.625 6 127930836.198 6        41.100    24344445.832 3  99686425.09043        22.500
G20  24973635.211 6 131237310.125 6        36.000    24973647.695 3 102262883.43943        18.300
G14  22251802.273 7 116933968.066 7        45.500    22251812.996 5  91117474.21745        32.600
G29  22562036.133 7 118564351.220 7        47.100    22562045.250 5  92387880.49345        34.400    22562045.250 7  92387874.488 7        42.300
G23  24725288.141 6 129932287.345 6        38.600    24725298.059 3 101245974.96443        21.300
G06  22513509.195 7 118309375.878 7        44.900    22513521.156 5  92189231.54545        30.900
> 2013  6 15  4  8 30.0000000  0 32
G21  24954149.625 6 131134970.661 6        36.000    24954164.270 2 102183138.61142        16.300
G16  21618942.883 8 113608418.673 8        50.500    21618951.305 6  88526110.08746        37.500
G31  20897384.328 8 109816750.028 8        53.000    20897392.582 7  85571407.54547        43.900    20897392.250 8  85571409.546 8        49.600
G25  25311140.680 5                        31.200
G03  24471929.367 6 128600909.470 6        36.900    24471945.941 3 100208597.37043        20.100
G32  24353269.156 6 127977272.888 6        40.500    24353282.379 3  99722609.39343        22.200
G20  24978799.383 5 131264449.444 5        34.100    24978812.719 3 102284030.84043        18.300
G14  22269970.219 7 117029439.755 7        45.800    22269981.113 5  91191867.63245        31.900
G29  22575205.547 7 118633556.959 7        47.300    22575214.926 5  92441807.01545        35.300    22575214.492 7  92441801.003 7        42.400
G23  24705611.570 6 129828885.720 6        39.100    24705621.457 3 101165402.38843        20.900
G06  22493874.914 7 118206197.480 7        45.500    22493886.930 5  92108832.89345        31.300
> 2013  6 15  4  9  0.0000000  0 33
G21  24944906.188 5 131086398.324 5        34.500    24944920.641 2 102145290.20442        15.600
G16  21610610.641 8 113564632.284 8        50.900    21610619.094 6  88491990.85646        37.700
G31  20897653.484 8 109818165.404 8        52.100    20897661.789 7  85572510.42247        44.100    20897661.188 8  85572512.423 8        49.800
G25  25327654.85915 133097708.76115        31.800    25327669.28912 103712551.33852        16.900    25327669.30515 103712551.32715        35.100    25327670.78516  99391188.30616        41.500
G03  24449678.117 6 128483975.328 6        38.700    24449693.941 3 100117480.26643        21.500
G32  24362153.094 6 128023961.051 6        40.600    24362166.563 3  99758989.67143        22.300
G20  24984030.500 6 131291942.239 6        36.400    24984044.246 3 102305453.73643        19.000
G14  22288195.547 7 117125214.853 7        46.100    22288205.871 5  91266497.47245        31.700
G29  22588457.188 7 118703194.705 7        47.300    22588466.242 5  92496070.15845        33.600    22588466.383 7  92496064.152 7        42.200
G23  24685965.344 6 129725651.941 6        39.900    24685976.574 3 101084960.54043        19.900
G06  22474287.227 7 118103264.738 7        45.800    22474299.582 5  92028625.65545        31.100
> 2013  6 15  4  9 30.0000000  0 32
G21  24935673.555 6 131037875.919 6        36.100    24935686.910 2 102107480.61142        15.600
G16  21602340.813 8 113521173.441 8        50.300    21602349.461 6  88458126.85746        38.100
G31  20897962.508 8 109819789.394 8        53.000    20897970.738 7  85573775.87247        44.300    20897970.465 8  85573777.866 8        49.600
G25  25344147.164 5 133184378.564 5        35.000    25344161.914 2 103780086.10642        17.800    25344161.770 5 103780086.123 5        35.700    25344164.465 7  99455909.148 7        42.700
G03  24427434.438 6 128367087.354 6        38.900    24427450.660 3 100026399.13543        21.500
G32  24371085.234 6 128070897.939 6        40.000    24371098.641 3  99795563.76443        22.800
G20  24989330.508 5 131319786.378 5        35.800    24989342.301 2 102327150.30742        17.400
G14  22306478.016 7 117221290.381 7        45.500    22306488.762 5  91341361.41445        31.200
G29  22601790.367 7 118773261.676 7        47.600    22601800.082 5  92550667.76345        34.100    22601799.863 7  92550661.753 7        43.000
G23  24666354.313 6 129622588.361 6        40.400    24666363.816 3 101004651.36343        20.400
G06  22454747.141 7 118000579.831 7        45.600    22454759.219 5  91948611.52845        31.400
> 2013  6 15  4 10  0.0000000  0 31
G21  24926449.664 6 130989406.346 6        37.200    24926463.176 2 102069712.17842        15.600
G16  21594133.195 8 113478042.354 8        50.900    21594141.531 6  88424518.26546        38.600
G31  20898311.453 8 109821623.775 8        52.600    20898319.504 7  85575205.25347        44.900    20898319.633 8  85575207.254 8        49.500
G25  25360619.789 5 133270947.657 5        34.100    25360634.664 2 103847542.54642        14.800    25360634.469 5 103847542.481 5        32.900    25360637.922 6  99520554.831 6        40.400
G03  24405199.188 6 128250248.055 6        37.500    24405216.000 3  99935355.91743        19.900
G32  24380064.266 6 128118081.253 6        40.900    24380076.809 3  99832329.84243        21.700
G20  24994695.242 5 131347979.644 5        34.400    24994708.309 2 102349118.91842        17.800
G14  22324817.188 7 117317664.380 7        46.000    22324827.895 5  91416457.92845        30.400
G29  22615204.859 7 118843755.901 7        47.300    22615215.203 5  92605598.28145        35.200    22615214.594 7  92605592.270 7        43.800
G23  24646775.273 6 129519697.780 6        40.400    24646784.656 3 100924476.97243        19.900
G06  22435254.352 7 117898145.830 7        46.600    22435266.410 5  91868792.90845        31.900
> 2013  6 15  4 10 30.0000000  0 32
G21  24917236.641 6 130940991.961 6        37.000    24917250.418 2 102031986.81042        16.900
G16  21585987.656 8 113435238.404 8        50.900    21585996.238 6  88391164.58246        38.400
G31  20898700.539 8 109823669.362 8        52.700    20898708.906 7  85576799.21247        43.400    20898708.418 8  85576801.213 8        49.800
G25  25377075.148 6 133357415.714 6        36.700    25377089.766 2 103914920.12642        15.600    25377089.910 5 103914920.107 5        35.900    25377092.492 7  99585125.050 7        42.400
G03  24382976.000 6 128133460.063 6        38.800    24382991.742 3  99844352.64143        21.500
G32  24389089.281 6 128165508.577 6        40.800    24389101.512 3  99869286.09343        21.300
G20  25000125.797 5 131376520.284 5        32.800    25000138.891 2 102371358.26242        17.400
G14  22343212.773 7 117414334.313 7        46.000    22343223.605 5  91491785.06245        31.000
G29  22628700.352 7 118914675.025 7        47.200    22628710.762 5  92660859.88945        34.800    22628710.418 7  92660853.879 7        43.700
G23  24627228.234 6 129416982.933 6        39.700    24627237.781 3 100844439.51643        19.900
G06  22415810.172 7 117795965.400 7        46.600    22415822.199 5  91789171.88245        31.000
> 2013  6 15  4 11  0.0000000  0 31
G21  24908034.523 6 130892634.655 6        37.700    24908048.234 2 101994305.91142        17.800
G16  21577904.000 8 113392760.792 8        51.000    21577912.703 6  88358065.19046        38.300
G31  20899130.352 8 109825927.000 8        52.100    20899138.867 7  85578558.40147        44.400    20899138.617 8  85578560.402 8        49.900
G25  25393509.453 6 133443781.642 6        37.600    25393524.867 2 103982218.16942        16.900    25393524.512 5 103982218.150 5        34.800    25393527.008 7  99649618.990 7        42.200
G03  24360761.867 6 128016725.347 6        38.900    24360777.496 3  99753390.92543        21.700
G32  24398160.352 6 128213176.678 6        40.700    24398172.672 3  99906429.94043        20.400
G20  25005623.516 5 131405405.469 5        33.500    25005635.090 3 102393866.09643        18.300
G14  22361663.977 7 117511297.185 7        45.200    22361675.242 5  91567340.44145        30.700
G29  22642276.492 7 118986016.278 7        47.700    22642286.227 5  92716450.43045        34.600    22642285.922 7  92716444.428 7        43.400
G23  24607716.875 6 129314446.288 6        41.000    24607726.441 3 100764540.93343        21.300
G06  22396414.445 7 117694040.650 7        46.400    22396426.422 5  91709750.09645        32.400
> 2013  6 15  4 11 30.0000000  0 31
G21  24898844.672 6 130844338.172 6        38.400    24898858.441 3 101956672.35143        18.300
G16  21569883.219 8 113350609.957 8        51.200    21569892.078 6  88325220.42546        38.300
G31  20899600.867 8 109828398.591 8        51.200    20899609.316 7  85580484.30247        44.300    20899609.051 8  85580486.303 8        49.900
G25  25409925.07815 133530045.89015        35.300    25409941.33612 104049436.85552        16.300    25409940.45716 104049436.90316        36.000    25409942.36316  99714036.96016        41.800
G03  24338558.688 6 127900046.947 6        39.200    24338573.934 3  99662473.10243        21.700
G32  24407276.320 6 128261084.180 6        40.000    24407289.215 3  99943760.34943        21.100
G20  25011184.938 5 131434634.011 5        33.100    25011197.754 2 102416641.43442        17.400
G14  22380171.039 7 117608551.936 7        44.700    22380182.016 4  91643123.24444        29.400
G29  22655932.305 7 119057778.193 7        47.100    22655942.531 5  92772368.75545        34.300    22655941.859 7  92772362.749 7        43.400
G23  24588238.836 6 129212091.185 6        40.400    24588248.340 3 100684783.79243        18.300
G06  22377068.227 7 117592375.557 7        46.800    22377079.727 5  91630530.62945        30.900
> 2013  6 15  4 12  0.0000000  0 31
G21  24889665.586 6 130796103.608 6        38.100    24889679.141 2 101919087.10242        17.400
G16  21561924.172 8 113308784.162 8        50.600    21561932.695 6  88292628.94746        38.700
G31  20900111.813 8 109831083.841 8        51.000    20900119.605 7  85582576.69947        43.900    20900119.723 8  85582578.700 8        49.300
G25  25426321.586 6 133616206.636 6        36.900    25426337.258 3 104116575.12243        18.300    25426336.102 6 104116575.117 6        36.600    25426337.820 7  99778377.726 7        42.500
G03  24316366.320 6 127783425.934 6        38.300    24316380.902 3  99571599.94743        21.500
G32  24416437.875 6 128309227.189 6        40.200    24416451.016 3  99981274.26943        21.500
G20  25016811.59415 131464202.45015        34.200    25016825.15612 102439681.62052        16.900
G14  22398733.109 7 117706094.153 7        45.000    22398743.984 5  91719130.06645        30.700
G29  22669667.063 7 119129957.022 7        47.700    22669677.738 5  92828611.95445        35.100    22669677.305 7  92828605.944 7        44.100
G23  24568796.023 6 129109919.089 6        40.500    24568805.777 3 100605169.24243        20.900
G06  22357771.742 7 117490971.299 7        46.900    22357782.984 5  91551514.41345        31.700
> 2013  6 15  4 12 30.0000000  0 31
G21  24880499.109 6 130747934.151 6        37.300    24880512.617 2 101881552.51942        17.400
G16  21554026.719 8 113267283.556 8        51.500    21554035.305 6  88260290.85546        38.400
G31  20900663.734 8 109833984.758 8        52.100    20900672.090 7  85584837.15047        44.500    20900671.770 8  85584839.144 8        49.800
G03  24294185.125 6 127666865.526 6        39.200    24294200.199 3  99480773.95343        20.400
G32  24425644.859 6 128357603.980 6        41.600    24425657.785 3 100018970.34843        22.200
G20  25022503.883 5 131494109.735 5        35.900    25022515.793 3 102462985.88743        18.300
G14  22417349.102 7 117803922.355 7        45.300    22417360.387 5  91795359.71845        30.700
G29  22683481.586 7 119202551.196 7        47.200    22683492.125 5  92885178.79445        34.700    22683491.680 7  92885172.784 7        44.200
G23  24549389.109 6 129007933.395 6        37.900    24549398.398 3 100525700.01843        19.000
G06  22338524.984 7 117389831.394 7        46.200    22338536.531 5  91472704.18245        32.300
> 2013  6 15  4 13  0.0000000  0 30
G21  24871344.648 6 130699832.346 6        37.600    24871358.875 2 101844070.65942        17.400
G16  21546191.461 8 113226107.898 8        50.600    21546199.848 6  88228205.96746        38.500
G31  20901256.906 8 109837102.680 8        52.400    20901265.461 7  85587266.68647        44.000    20901265.047 8  85587268.687 8        49.900
G03  24272016.391 6 127550368.242 6        40.000    24272031.594 3  99389997.15243        21.800
G32  24434894.891 7 128406212.331 7        42.200    24434907.602 3 100056846.88843        22.200
G20  25028258.031 5 131524353.799 5        34.900    25028272.230 3 102486552.50843        18.300
G14  22436019.586 7 117902034.422 7        44.900    22436030.414 5  91871810.56745        31.000
G29  22697374.688 7 119275558.793 7        47.200    22697384.586 5  92942067.79045        34.800    22697384.156 7  92942061.783 7        43.900
G23  24530017.523 6 128906137.279 6        40.200    24530026.207 3 100446378.39843        18.600
G06  22319329.250 7 117288958.765 7        46.300    22319340.879 5  91394102.22245        32.100
> 2013  6 15  4 13 30.0000000  0 30
G21  24862205.266 6 130651799.865 6        36.900    24862219.590 2 101806642.87442        17.400
G16  21538417.258 8 113185256.365 8        50.000    21538425.336 6  88196373.64946        38.600
G31  20901891.344 8 109840437.787 8        52.400    20901899.867 7  85589865.46747        43.800    20901899.461 8  85589867.468 8        49.800
G03  24249859.758 6 127433935.917 6        40.800    24249875.090 3  99299271.03643        23.000
G32  24444188.305 6 128455048.912 6        41.600    24444201.656 3 100094901.24143        22.200
G20  25034077.078 5 131554931.946 5        34.500    25034090.344 3 102510379.53343        18.600
G14  22454743.211 7 118000427.028 7        45.600    22454753.750 5  91948480.01245        30.000
G29  22711345.617 7 119348976.854 7        47.000    22711355.305 5  92999276.63145        34.700    22711354.711 7  92999270.616 7        44.000
G23  24510682.258 6 128804532.505 6        39.100    24510691.488 3 100367205.93343        19.900
G06  22300185.117 7 117188355.299 7        46.000    22300197.160 5  91315710.00545        32.200
> 2013  6 15  4 14  0.0000000  0 30
G21  24853078.125 5 130603839.427 5        35.300    24853092.555 2 101769271.13342        17.800
G16  21530705.109 8 113144727.759 8        50.300    21530713.727 6  88164792.95546        38.400
G31  20902567.805 8 109843991.393 8        52.000    20902576.520 7  85592634.49347        43.700    20902576.281 8  85592636.500 8        50.000
G03  24227715.938 6 127317570.783 6        41.300    24227730.781 3  99208597.23243        22.600
G32  24453524.297 7 128504111.043 7        42.000    24453537.781 4 100133131.33644        24.100
G20  25039959.867 6 131585841.759 6        38.100    25039972.484 3 102534464.93543        18.300
G14  22473519.508 7 118099098.061 7        45.400    22473530.273 4  92025366.42544        29.500
G29  22725394.398 7 119422802.503 7        46.600    22725404.094 5  93056803.07045        34.900    22725403.742 7  93056797.059 7        44.000
G23  24491384.734 6 128703121.863 6        39.700    24491394.160 3 100288184.71043        21.700
G06  22281092.789 7 117088023.540 7        45.500    22281104.148 5  91237529.51245        31.300
> 2013  6 15  4 14 30.0000000  0 30
G21  24843965.109 5 130555953.280 5        35.400    24843980.207 2 101731957.29342        16.900
G16  21523054.094 8 113104521.598 8        50.500    21523062.473 6  88133463.51246        38.000
G31  20903286.047 8 109847764.483 8        51.500    20903294.105 7  85595574.54547        43.600    20903293.813 8  85595576.546 8        49.600
G03  24205584.422 6 127201275.128 6        40.500    24205599.883 3  99117977.56143        20.100
G32  24462902.977 6 128553396.130 6        41.700    24462915.852 3 100171535.17743        22.300
G20  25045904.148 6 131617081.122 6        36.000    25045917.414 3 102558807.19743        18.300
G14  22492349.234 7 118198044.492 7        45.600    22492359.777 5  92102467.44245        30.600
G29  22739519.797 7 119497033.417 7        46.400    22739530.238 5  93114645.31045        34.600    22739529.629 7  93114639.305 7        44.500
G23  24472123.602 6 128601907.883 6        37.300    24472133.898 3 100209316.73543        19.000
G06  22262052.273 7 116987966.229 7        45.900    22262063.633 5  91159562.85445        33.400
> 2013  6 15  4 15  0.0000000  0 30
G21  24834867.805 5 130508144.920 5        35.900    24834882.285 3 101694704.15143        18.600
G16  21515464.508 8 113064638.816 8        50.700    21515473.199 6  88102386.05646        38.600
G31  20904046.016 8 109851759.366 8        52.700    20904054.699 7  85598687.42847        43.200    20904054.703 8  85598689.428 8        49.800
G03  24183469.070 6 127085052.466 6        41.500    24183483.688 3  99027414.74843        22.800
G32  24472323.914 6 128602902.786 6        41.700    24472337.891 3 100210111.65243        23.300
G20  25051911.102 5 131648648.934 5        33.000    25051925.223 2 102583405.31242        15.600
G14  22511229.398 7 118297265.142 7        45.000    22511240.895 4  92179782.10544        29.800
G29  22753722.359 7 119571668.564 7        46.200    22753733.082 5  93172802.53145        34.800    22753732.582 7  93172796.521 7        44.400
G23  24452903.383 6 128500894.532 6        41.700    24452911.660 3 100130605.11243        21.800
G06  22243065.281 7 116888187.039 7        45.700    22243076.504 5  91081812.92445        32.600
> 2013  6 15  4 15 30.0000000  0 30
G21  24825785.688 6 130460415.714 6        36.400    24825798.652 2 101657512.70642        16.900
G16  21507936.305 8 113025077.662 8        50.300    21507944.938 6  88071559.21446        38.600
G31  20904848.719 8 109855975.746 8        52.800    20904856.414 7  85601972.89347        43.500    20904856.391 8  85601974.894 8        50.000
G03  24161366.180 6 126968903.824 6        41.400    24161381.145 3  98936909.62843        23.400
G32  24481786.289 6 128652627.139 6        40.700    24481799.555 3 100248857.76943        22.800
G20  25057980.875 5 131680541.749 5        33.500    25057993.602 2 102608256.74742        14.800
G14  22530162.375 7 118396756.260 7        44.500    22530173.727 5  92257307.52345        30.200
G29  22768000.953 7 119646703.928 7        45.400    22768011.996 5  93231271.60745        34.600    22768011.527 7  93231265.596 7        44.200
G23  24433718.008 6 128400083.011 6        40.400    24433727.238 3 100052050.75543        20.100
G06  22224131.227 7 116788687.584 7        46.100    22224142.426 5  91004280.97545        32.300
> 2013  6 15  4 16  0.0000000  0 30
G21  24816718.641 6 130412768.456 6        36.700    24816731.898 2 101620384.99142        16.900
G16  21500469.148 8 112985837.710 8        50.900    21500478.117 6  88040982.66246        38.700
G31  20905693.391 8 109860414.794 8        53.400    20905701.406 7  85605431.87147        44.600    20905701.211 8  85605433.872 8        49.300
G03  24139278.055 6 126852832.129 6        41.600    24139292.887 3  98846464.48943        22.800
G32  24491290.445 6 128702566.945 6        40.600    24491303.230 3 100287771.76143        22.300
G20  25064111.266 5 131712757.560 5        33.900    25064125.449 2 102633359.78342        16.900
G14  22549146.531 7 118496515.653 7        46.300    22549157.520 5  92335042.01045        30.000
G29  22782355.625 7 119722137.638 7        46.600    22782366.578 5  93290051.09245        33.600    22782366.016 7  93290045.082 7        44.300
G23  24414573.508 6 128299476.593 6        40.400    24414582.656 3  99973656.16143        22.300
G06  22205250.852 7 116689470.662 7        47.300    22205261.680 5  90926969.17145        33.200
> 2013  6 15  4 16 30.0000000  0 30
G21  24807666.891 6 130365205.288 6        36.400    24807680.781 2 101583322.88242        17.800
G16  21493062.617 8 112946917.981 8        51.000    21493071.418 6  88010655.63246        38.700
G31  20906580.414 8 109865078.042 8        52.500    20906588.660 7  85609065.55247        44.100    20906588.320 8  85609067.553 8        49.500
G03  24117205.742 6 126736839.821 6        40.800    24117219.883 3  98756081.20643        22.900
G32  24500833.539 6 128752719.677 6        39.700    24500847.035 3 100326851.67443        22.200
G20  25070303.164 5 131745294.279 5        35.800    25070315.684 2 102658712.92742        16.300
G14  22568180.656 7 118596540.729 7        45.800    22568191.738 4  92412983.51844        29.700
G29  22796785.742 7 119797967.390 7        46.400    22796795.770 5  93349139.17545        33.500    22796795.391 7  93349133.167 7        44.100
G23  24395468.539 6 128199077.965 6        38.200    24395478.355 3  99895423.58343        21.100
G06  22186424.742 7 116590539.066 7        47.600    22186435.711 5  90849879.70045        33.500
> 2013  6 15  4 17  0.0000000  0 30
G21  24798632.688 6 130317729.270 6        36.000    24798645.957 2 101546328.66842        16.900
G16  21485717.609 8 112908318.817 8        51.200    21485726.125 6  87980578.38646        38.400
G31  20907511.070 8 109869966.689 8        53.400    20907519.223 7  85612874.86947        43.700    20907518.859 8  85612876.870 8        50.200
G03  24095148.336 6 126620929.342 6        41.000    24095162.145 3  98665761.60743        22.300
G32  24510416.563 6 128803083.069 6        38.300    24510429.996 3 100366095.72443        22.200
G20  25076554.852 5 131778149.939 5        34.500    25076568.238 2 102684314.57442        16.300
G14  22587264.859 7 118696829.140 7        45.400    22587276.445 5  92491130.20145        30.800
G29  22811290.375 7 119874190.831 7        45.900    22811300.801 5  93408534.03745        33.700    22811300.367 7  93408528.022 7        43.700
G23  24376403.523 6 128098890.124 6        39.700    24376412.000 3  99817355.18643        22.600
G06  22167653.516 7 116491895.662 7        46.800    22167664.734 5  90773014.79745        33.500
> 2013  6 15  4 17 30.0000000  0 32
G21  24789615.680 6 130270341.897 6        37.700    24789629.453 2 101509403.46442        17.800
G16  21478433.188 8 112870038.668 8        51.200    21478441.813 6  87950749.72946        38.800
G31  20908484.445 8 109875081.108 8        52.500    20908492.582 7  85616860.10947        44.300    20908492.445 8  85616862.110 8        49.300
G03  24073106.438 6 126505102.202 6        39.800    24073120.742 3  98575506.97443        21.800
G32  24520041.039 6 128853653.686 6        39.600    24520053.895 3 100405501.24043        21.300
G20  25082867.086 5 131811321.546 5        34.100    25082881.090 2 102710162.39242        16.900
G14  22606398.281 7 118797377.902 7        45.200    22606410.297 5  92569479.75745        30.100
G29  22825869.516 7 119950804.584 7        46.800    22825880.449 5  93468233.02745        33.600    22825879.844 7  93468227.017 7        43.800
G23  24357378.313 6 127998915.020 6        40.000    24357387.754 3  99739452.59243        21.800
G06  22148937.031 7 116393542.210 7        47.400    22148948.715 5  90696375.83745        33.600
> 2013  6 15  4 18  0.0000000  0 31
G21  24780615.945 6 130223045.768 6        38.300    24780629.352 3 101472549.40043        19.300
G16  21471209.563 8 112832077.141 8        50.900    21471217.965 6  87921169.34046        39.300
G31  20909500.609 8 109880422.667 8        52.000    20909508.555 7  85621022.34447        43.900    20909508.328 8  85621024.344 8        49.600
G03  24051082.297 6 126389361.081 6        40.500    24051095.738 3  98485319.41343        23.000
G32  24529702.617 6 128904429.170 6        38.500    24529716.340 3 100445066.42143        20.900
G20  25089239.617 5 131844806.916 5        35.200    25089253.453 2 102736254.71442        17.400
G14  22625581.563 7 118898184.414 7        44.800    22625593.422 4  92648030.15844        29.600
G29  22840522.570 7 120027806.309 7        46.000    22840533.180 5  93528234.32645        33.500    22840532.855 7  93528228.316 7        43.100
G23  24338395.391 6 127899155.503 6        41.200    24338403.945 3  99661717.95243        22.000
G06  22130276.883 7 116295481.483 7        46.500    22130288.188 5  90619964.96245        33.700
> 2013  6 15  4 18 30.0000000  0 31
G21  24771632.633 6 130175844.197 6        38.100    24771646.273 2 101435769.02942        16.300
G16  21464046.180 8 112794434.497 8        51.100    21464054.441 6  87891837.43346        39.300
G31  20910560.625 8 109885993.174 8        52.800    20910569.520 7  85625362.98047        43.900    20910569.152 8  85625364.974 8        49.600
G03  24029074.523 6 126273708.982 6        40.800    24029088.160 4  98395201.15044        24.900
G32  24539403.563 6 128955407.546 6        39.600    24539417.395 3 100484789.69343        22.200
G20  25095671.953 6 131878604.625 6        38.000    25095684.645 2 102762590.43242        16.900
G14  22644813.305 7 118999246.987 7        44.100    22644824.230 4  92726780.09144        28.300
G29  22855249.453 7 120105194.629 7        46.000    22855259.410 5  93588536.88745        32.700    22855259.133 7  93588530.881 7        43.000
G23  24319452.766 6 127799614.912 6        38.100    24319462.008 3  99584153.90243        19.900
G06  22111672.469 7 116197716.965 7        46.700    22111684.438 5  90543784.90045        33.800
> 2013  6 15  4 19  0.0000000  0 32
G21  24762669.406 6 130128738.627 6        38.200    24762683.648 3 101399063.46143        18.600
G16  21456943.375 8 112757109.010 8        51.200    21456951.988 6  87862752.67546        39.000
G31  20911664.320 8 109891792.733 8        52.000    20911672.965 7  85629882.10247        43.300    20911672.719 8  85629884.103 8        50.000
G03  24007082.719 6 126158147.586 6        40.000    24007096.707 3  98305153.59243        22.500
G32  24549142.547 6 129006585.531 6        39.100    24549156.219 3 100524668.50643        21.300
G20  25102162.242 6 131912711.246 6        38.200    25102176.043 3 102789166.84543        18.300
G14  22664092.477 7 119100562.009 7        44.300    22664104.070 4  92805726.73244        28.100
G29  22870048.922 7 120182966.239 7        45.800    22870058.426 5  93649138.10345        31.900    22870058.305 7  93649132.095 7        42.500
G23  24300552.664 6 127700295.172 6        40.300    24300562.473 3  99506761.96843        23.400
G06  22093125.547 7 116100250.467 7        47.600    22093136.844 5  90467837.05745        34.200
> 2013  6 15  4 19 30.0000000  0 31
G21  24753722.391 6 130081732.653 6        37.000    24753738.336 3 101362435.46543        18.600
G16  21449900.953 8 112720101.127 8        51.200    21449909.145 6  87833915.39346        39.200
G31  20912812.094 8 109897823.285 8        52.700    20912820.160 7  85634581.20947        43.900    20912819.801 8  85634583.210 8        49.600
G03  23985110.313 6 126042680.032 6        38.800    23985123.926 3  98215179.12443        22.600
G32  24558919.852 6 129057961.186 6        38.800    24558933.180 3 100564701.33943        21.500
G20  25108710.055 5 131947125.653 5        34.800    25108724.277 3 102815983.06043        18.300
G14  22683420.281 7 119202127.874 7        45.000    22683432.305 4  92884868.83044        29.600
G29  22884921.031 7 120261119.411 7        45.100    22884931.414 5  93710036.65845        31.700    22884930.988 7  93710030.647 7        42.600
G23  24281695.102 6 127601200.056 6        39.100    24281704.852 3  99429545.09443        21.700
G06  22074635.313 7 116003085.337 7        47.900    22074646.813 5  90392124.03245        34.200
> 2013  6 15  4 20  0.0000000  0 32
G21  24744797.586 6 130034827.811 6        37.300    24744812.574 2 101325886.39942        17.400
G16  21442919.023 8 112683409.351 8        50.100    21442927.262 6  87805324.43346        39.500
G31  20914003.641 8 109904085.305 8        53.000    20914012.059 7  85639460.68947        44.200    20914012.172 8  85639462.689 8        49.300
G03  23963154.813 6 125927308.253 6        40.400    23963168.777 3  98125279.30843        22.900
G32  24568733.391 6 129109531.256 6        39.900    24568746.527 3 100604885.69443        22.200
G20  25115318.258 6 131981844.788 6        37.500    25115331.934 3 102843036.78443        18.600
G14  22702794.938 7 119303941.259 7        45.200    22702806.641 4  92964203.80144        29.600
G29  22899864.656 7 120339650.663 7        44.400    22899874.863 5  93771229.78445        31.600    22899874.730 7  93771223.781 7        43.000
G23  24262882.195 6 127502331.640 6        39.200    24262890.758 3  99352504.82943        23.500
G06  22056203.016 7 115906223.362 7        46.400    22056214.832 5  90316647.25545        34.800
> 2013  6 15  4 20 30.0000000  0 32
G21  24735891.250 6 129988026.959 6        38.000    24735906.531 2 101289418.27942        16.900
G16  21435996.273 8 112647033.396 8        50.100    21436005.254 6  87776979.57146        39.400
G31  20915239.773 8 109910580.249 8        53.200    20915247.918 7  85644521.66747        44.100    20915247.715 8  85644523.661 8        49.300
G03  23941219.695 6 125812034.707 6        40.600    23941233.926 4  98035456.02644        24.900
G32  24578582.992 6 129161293.469 6        39.000    24578596.566 3 100645219.75143        22.000
G20  25121982.234 6 132016866.599 6        37.300    25121996.211 3 102870326.32043        18.300
G14  22722215.711 7 119406000.121 7        45.000    22722227.664 4  93043730.04844        27.700
G29  22914879.977 7 120418558.083 7        43.400    22914890.668 5  93832716.03045        30.400    22914890.445 7  93832710.023 7        42.700
G23  24244111.203 6 127403692.766 6        39.400    24244120.273 3  99275643.43743        22.200
G06  22037828.992 7 115809667.617 7        47.700    22037840.477 5  90241409.09345        34.500
> 2013  6 15  4 21  0.0000000  0 31
G21  24727006.539 6 129941331.761 6        38.900    24727020.531 3 101253032.52443        19.000
G16  21429134.555 8 112610971.850 8        50.900    21429143.313 6  87748879.68846        39.400
G31  20916520.164 8 109917308.458 8        53.000    20916528.129 7  85649764.40747        43.800    20916528.133 8  85649766.408 8        49.500
G03  23919302.680 6 125696861.097 6        39.400    23919315.996 4  97945710.59944        24.700
G32  24588469.508 6 129213244.423 6        39.400    24588483.094 3 100685700.88843        22.600
G20  25128703.617 6 132052188.207 6        37.300    25128717.145 3 102897849.47343        18.300
G14  22741683.250 7 119508301.189 7        44.900    22741694.625 4  93123445.02644        27.700
G29  22929966.578 7 120497838.273 7        43.700    22929977.551 5  93894492.75545        30.900    22929977.137 7  93894486.745 7        42.000
G23  24225384.930 6 127305285.478 6        39.900    24225394.195 3  99198962.48943        23.000
G06  22019513.688 7 115713419.882 7        47.300    22019524.934 5  90166410.93745        34.500
> 2013  6 15  4 21 30.0000000  0 31
G21  24718141.102 6 129894745.914 6        39.400    24718155.570 3 101216731.95643        19.600
G16  21422331.969 8 112575225.209 8        51.200    21422340.746 6  87721025.19146        38.900
G31  20917845.094 8 109924272.290 8        53.000    20917853.121 7  85655190.74647        43.900    20917852.953 8  85655192.746 8        48.700
G03  23897405.211 6 125581790.849 6        39.700    23897419.215 4  97856045.70944        25.300
G32  24598391.141 6 129265382.855 6        39.700    24598404.309 3 100726328.10243        21.300
G20  25135481.922 5 132087808.312 5        34.800    25135495.945 2 102925605.23942        16.900
G14  22761196.539 7 119610842.999 7        44.900    22761207.895 4  93203347.60244        27.200
G29  22945123.859 7 120577490.167 7        42.700    22945134.855 5  93956559.10745        30.100    22945134.492 7  93956553.096 7        42.900
G23  24206703.063 6 127207113.701 6        40.900    24206712.516 3  99122465.10643        22.900
G06  22001257.945 8 115617484.008 8        48.100    22001268.699 5  90091655.79045        34.800
> 2013  6 15  4 22  0.0000000  0 31
G21  24709297.875 6 129848270.743 6        39.800    24709311.340 3 101180517.59743        19.900
G16  21415589.109 8 112539791.927 8        50.500    21415597.500 6  87693414.85746        39.700
G31  20919215.438 8 109931471.675 8        52.900    20919223.266 7  85660800.62947        44.500    20919223.086 8  85660802.630 8        49.100
G03  23875528.188 6 125466825.352 6        39.900    23875541.414 4  97766462.42444        24.200
G32  24608347.391 6 129317704.848 6        39.200    24608361.277 3 100767098.35443        20.900
G20  25142316.508 6 132123723.457 6        38.600    25142330.406 2 102953590.84442        17.800
G14  22780754.828 7 119713621.604 7        44.900    22780766.238 4  93283434.69144        28.300
G29  22960351.227 7 120657509.719 7        43.800    22960362.012 4  94018911.95744        29.700    22960361.602 7  94018905.940 7        42.600
G23  24188067.500 6 127109179.012 6        40.200    24188075.559 3  99046152.40143        23.900
G06  21983061.023 7 115521861.333 7        47.500    21983072.633 5  90017144.69845        35.100
> 2013  6 15  4 22 30.0000000  0 30
G21  24700474.016 6 129801909.229 6        37.200    24700489.273 3 101144391.81743        18.300
G16  21408905.992 8 112504671.937 8        51.900    21408914.520 6  87666048.64746        40.400
G31  20920630.180 8 109938908.591 8        52.700    20920639.031 7  85666595.61847        43.800    20920639.047 8  85666597.611 8        49.100
G03  23853671.016 6 125351967.719 6        40.300    23853685.012 4  97676963.15444        24.800
G32  24618339.078 6 129370208.702 6        39.200    24618352.316 3 100808010.30243        20.400
G20  25149207.250 6 132159932.067 6        37.400    25149221.211 2 102981805.17142        16.900
G14  22800357.852 7 119816635.203 7        43.900    22800369.551 4  93363704.86844        27.900
G29  22975648.430 7 120737895.520 7        44.200    22975658.898 5  94081550.18845        30.300    22975658.574 7  94081544.178 7        42.600
G23  24169476.453 7 127011485.073 7        42.000    24169485.430 4  98970027.35044        24.900
G06  21964924.820 7 115426555.336 7        47.300    21964935.785 5  89942880.35345        35.100
> 2013  6 15  4 23  0.0000000  0 31
G21  24691674.266 6 129755663.707 6        36.800    24691688.016 2 101108356.43742        15.600
G16  21402282.398 8 112469864.888 8        51.200    21402291.383 6  87638926.28846        39.600
G31  20922090.930 8 109946583.643 8        52.800    20922099.230 7  85672576.14547        43.500    20922098.723 8  85672578.146 8        49.600
G03  23831834.539 6 125237220.031 6        38.900    23831848.258 3  97587549.59143        23.800
G32  24628364.156 6 129422891.492 6        40.800    24628376.875 3 100849061.69443        20.600
G20  25156152.766 6 132196431.456 6        37.900    25156166.957 3 103010246.07343        18.600
G14  22820004.906 7 119919881.434 7        44.700    22820017.270 4  93444156.32744        27.000
G29  22991014.234 7 120818644.914 7        44.500    22991024.723 5  94144471.74145        30.700    22991024.613 6  94144465.731 6        41.400
G23  24150932.273 6 126914034.397 6        41.300    24150941.176 4  98894091.82544        24.700
G06  21946849.508 7 115331568.257 7        47.900    21946860.164 5  89868864.51845        34.900
> 2013  6 15  4 23 30.0000000  0 31
G21  24682896.031 6 129709536.606 6        37.100    24682909.742 2 101072413.33542        16.300
G16  21395718.164 8 112435369.403 8        51.800    21395726.949 6  87612046.71746        40.000
G31  20923597.078 8 109954497.877 8        52.700    20923605.414 7  85678743.06447        44.100    20923605.305 8  85678745.065 8        49.400
G03  23810020.422 6 125122584.613 6        39.900    23810034.262 3  97498223.49243        23.200
G32  24638423.227 6 129475750.410 6        38.800    24638436.293 3 100890250.28643        21.100
G20  25163155.188 6 132233219.520 6        37.800    25163167.652 3 103038911.93643        18.600
G14  22839696.234 7 120023357.196 7        44.000    22839707.668 4  93524786.65344        27.900
G29  23006449.773 7 120899755.078 7        43.700    23006459.344 5  94207674.42745        31.000    23006459.090 6  94207668.416 6        41.500
G23  24132434.125 6 126816829.452 6        41.800    24132443.566 4  98818347.78544        26.000
G06  21928834.922 7 115236902.469 7        47.900    21928845.523 5  89795099.03745        34.400
> 2013  6 15  4 24  0.0000000  0 30
G21  24674141.727 6 129663530.057 6        38.200    24674156.082 3 101036564.13843        18.300
G16  21389212.844 8 112401184.552 8        51.400    21389221.723 6  87585409.19246        39.200
G31  20925148.813 8 109962652.183 8        52.600    20925156.871 7  85685097.04647        44.000    20925156.914 8  85685099.047 8        49.700
