     3.02           OBSERVATION DATA    M (MIXED)           RINEX VERSION / TYPE
NetR9 4.80          Receiver Operator   15-JUN-13 00:00:00  PGM / RUN BY / DATE
GMSD                                                        MARKER NAME
21749S002                                                   MARKER NUMBER
GEODETIC                                                    MARKER TYPE
GMSD                JAXA                                    OBSERVER / AGENCY
5049K72188          TRIMBLE NETR9       4.80                REC # / TYPE / VERS
4938353448          TRM59800.00     SCIS                    ANT # / TYPE
 -3607665.3832  4147868.2600  3223717.2637                  APPROX POSITION XYZ
        0.0000        0.0000        0.0000                  ANTENNA: DELTA H/E/N
G   12 C1C L1C S1C C2W L2W S2W C2X L2X S2X C5X L5X S5X      SYS / # / OBS TYPES
R   12 C1C L1C S1C C1P L1P S1P C2C L2C S2C C2P L2P S2P      SYS / # / OBS TYPES
E   12 C1X L1X S1X C5X L5X S5X C7X L7X S7X C8X L8X S8X      SYS / # / OBS TYPES
J   15 C1C L1C S1C C1X L1X S1X C2X L2X S2X C5X L5X S5X C6X  SYS / # / OBS TYPES
       L6X S6X                                              SYS / # / OBS TYPES
C    9 C2I L2I S2I C7I L7I S7I C6I L6I S6I                  SYS / # / OBS TYPES
    30.000                                                  INTERVAL
  2013     6    15     4     0    0.0000000     GPS         TIME OF FIRST OBS
G L2X -0.25000                                              SYS / PHASE SHIFT
R L1P  0.25000                                              SYS / PHASE SHIFT
R L2C -0.25000                                              SYS / PHASE SHIFT
J L2X -0.25000                                              SYS / PHASE SHIFT
GIOVE-A if present is mapped to satellite ID 51             COMMENT
GIOVE-B if present is mapped to satellite ID 52             COMMENT
DBHZ                                                        SIGNAL STRENGTH UNIT
                                                            END OF HEADER
> 2013  6 15  4  0  0.0000000  0 32
R21  22585468.500 7 120859940.538 7        44.300    22585467.063 7 120859665.547 7        43.000    22585475.984 6  94001875.227 6        36.200    22585476.613 5  94001883.223 5        35.600
R08  21665357.516 8 116017235.257 8        49.500    21665356.520 7 116017145.267 7        47.500    21665363.535 7  90235558.930 7        44.600    21665363.629 7  90235550.937 7        44.400
G21  25112295.359 5 131966023.234 5        33.900    25112311.836 2 102830710.57242        13.900
R09  21798921.930 8 116404797.882 8        48.800    21798920.965 7 116405040.889 7        47.300    21798927.543 6  90537270.161 6        41.500    21798928.016 6  90537266.165 6        41.100
G16  21770214.141 8 114403352.013 8        49.200    21770223.160 6  89145537.95846        36.400
G31  20898690.969 8 109823617.733 8        52.000    20898699.059 7  85576759.12647        43.800    20898699.066 8  85576761.119 8        49.500
G25  25027628.094 5 131521070.909 5        33.600    25027643.137 2 102484003.45142        16.900    25027644.031 6 102484003.454 6        36.400    25027645.512 6  98213830.219 6        40.600
G03  24851136.570 6 130593620.033 6        38.600    24851153.461 3 101761351.17743        19.300
G32  24209932.031 6 127224039.721 6        40.800    24209944.496 3  99135676.39943        23.800
G20  24900453.680 6 130852749.611 6        37.200    24900466.586 3 101963227.43543        18.600
R20  20303062.977 7 108569727.248 7        46.000    20303061.938 7 108569677.260 7        45.100    20303070.695 7  84443175.934 7        47.900    20303070.098 7  84443170.937 7        47.100
G14  21969332.820 7 115449587.466 7        45.800    21969342.715 5  89960815.51045        33.600
R07  23372224.492 7 125113341.790 7        42.800    23372224.273 6 125113301.798 6        41.300    23372236.758 6  97310354.786 6        39.400    23372237.129 6  97310348.784 6        38.200
G29  22362843.281 7 117517589.360 7        46.300    22362853.098 5  91572222.32045        35.800    22362853.008 7  91572216.311 7        43.700
R10  20618214.922 8 109906669.491 8        52.300    20618213.367 8 109906734.491 8        51.000    20618223.250 6  85483089.414 6        41.500    20618222.695 6  85483081.418 6        41.400
G23  25044043.844 6 131607353.684 6        39.200    25044054.121 3 102551220.08543        20.100
R11  22941722.188 7 122593546.869 7        43.400    22941721.371 7 122593598.863 7        42.300    22941731.094 6  95350677.306 6        36.000    22941730.445 5  95350673.314 5        35.100
R19  21329606.367 8 114098979.382 8        49.100    21329604.969 7 114099071.390 7        47.900    21329609.809 7  88743751.199 7        44.300    21329610.832 7  88743749.204 7        43.500
R01  22922008.492 7 122531286.374 7        44.500    22922007.117 7 122531279.401 7        43.000    22922015.992 6  95302131.379 6        37.000    22922017.004 5  95302120.398 5        35.900
G06  22833583.055 7 119991366.984 7        43.800    22833594.934 4  93499872.17444        28.700
J01  37303144.328 6 196029484.377 6        38.900    37303145.113 6 196029223.360 6        41.000    37303158.855 6 152750315.886 6        38.100    37303165.715 6 146385756.219 6        41.300    37303151.69515 159114783.30715        31.400
E12  25640687.914 7 134742793.581 7        44.900    25640696.660 7 100619702.205 7        44.700    25640692.816 7 103244537.859 7        43.600    25640694.809 8 101932124.138 8        50.600
C01  36697309.703 7 191092527.043 7        44.300    36697302.652 8 147764841.961 8        48.200    36697297.098 7 155278330.692 7        47.000
C02  39033180.211 5 203256037.805 5        35.900    39033179.043 6 157170453.785 6        41.100    39033173.816 6 165162161.480 6        39.900
C03  37220154.789 7 193815090.682 7        42.600    37220151.480 7 149870092.057 7        47.000    37220145.727 8 157490626.591 8        48.300
C04  37510097.680 6 195324939.274 6        40.700    37510095.078 7 151037616.330 7        45.200    37510088.555 7 158717513.110 7        45.100
C07  36056207.273 7 187754141.846 7        47.000    36056203.164 8 145183387.490 8        49.800    36056194.113 8 152565598.808 8        50.300
C10  37339055.117 7 194434270.555 7        44.900    37339053.957 7 150348917.412 7        46.200    37339044.219 7 157993728.860 7        46.300
C06  40962071.883 5 213300247.159 5        31.800    40962079.430 5 164937295.735 5        34.300    40962068.473 5 173323890.386 5        34.500
C14  25508362.891 6 132828736.277 6        37.500    25508364.441 6 102711604.534 6        40.400    25508354.227 7 107934191.721 7        42.300
C08  37481645.453 7 195176806.364 7        44.300    37481643.148 7 150923112.557 7        45.800    37481634.574 7 158597120.963 7        46.900
C09  40412834.172 6 210440241.031 6        37.500    40412839.500 6 162725772.975 6        38.700    40412828.586 6 170999915.928 6        36.200
> 2013  6 15  4  0 30.0000000  0 32
R21  22561545.945 7 120731922.645 7        44.100    22561543.922 7 120731647.661 7        43.000    22561552.398 5  93902305.960 5        34.800    22561552.781 5  93902313.964 5        34.900
R08  21677318.672 8 116081286.801 8        49.100    21677317.559 7 116081196.825 7        47.800    21677325.008 7  90285376.714 7        43.500    21677324.961 7  90285368.714 7        43.400
G21  25102960.992 5 131916969.179 5        33.100    25102976.102 2 102792486.71442        14.800
R09  21806856.570 8 116447172.796 8        48.500    21806855.605 7 116447415.796 7        46.600    21806861.934 6  90570228.351 6        41.400    21806863.219 6  90570224.348 6        41.500
G16  21760809.867 8 114353930.992 8        49.800    21760818.625 6  89107028.12446        36.800
G31  20898315.141 8 109821644.386 8        52.000    20898324.102 7  85575221.44947        43.700    20898323.656 8  85575223.443 8        50.300
G25  25044447.56315 131609453.27315        31.900    25044462.21512 102552872.77052        16.300    25044461.89815 102552872.81615        35.500    25044463.06616  98279829.98716        41.100
G03  24828800.648 5 130476254.225 5        34.300    24828819.078 2 101669897.76142        17.400
G32  24217940.070 6 127266120.277 6        41.100    24217952.652 3  99168466.33043        22.500
G20  24904491.453 6 130873967.259 6        36.400    24904504.637 3 101979760.52443        19.300
R20  20290497.781 7 108502535.426 7        47.100    20290496.742 7 108502485.431 7        45.700    20290505.180 8  84390915.669 8        48.100    20290504.906 7  84390910.678 7        47.600
G14  21986515.422 7 115539885.813 7        44.500    21986526.484 5  90031177.78645        34.000
R07  23394211.242 7 125231034.874 7        42.400    23394210.672 6 125230994.862 6        41.300    23394223.613 6  97401893.426 6        39.400    23394224.020 6  97401887.423 6        39.500
G29  22374640.563 7 117579585.139 7        46.200    22374649.918 5  91620530.70645        35.500    22374650.129 7  91620524.695 7        43.600
R10  20614367.070 8 109886157.936 8        52.800    20614366.102 8 109886222.929 8        50.800    20614374.582 7  85467135.984 7        42.000    20614374.887 6  85467127.988 6        41.500
G23  25023924.789 6 131501627.944 6        37.900    25023934.715 2 102468836.53942        17.800
R11  22929615.539 7 122528851.132 7        42.800    22929614.137 6 122528903.132 6        41.100    22929623.137 6  95300358.477 6        36.500    22929623.516 5  95300354.485 5        34.800
R19  21339190.867 8 114150248.038 8        49.600    21339189.234 8 114150340.052 8        48.100    21339194.785 7  88783626.806 7        44.300    21339194.832 7  88783624.810 7        44.100
R01  22915504.141 7 122496516.489 7        44.900    22915502.531 7 122496509.479 7        42.800    22915510.402 6  95275088.138 6        36.300    22915512.035 6  95275077.150 6        36.200
G06  22813272.094 7 119884634.008 7        43.800    22813284.734 4  93416703.73244        28.500
J01  37302784.891 6 196027593.485 6        38.200    37302785.109 6 196027332.475 6        41.100    37302798.410 6 152748842.456 6        37.400    37302805.375 6 146384344.177 6        41.300    37302790.945 5 159113248.387 5        32.300
E12  25624450.586 7 134657467.598 7        45.300    25624459.676 7 100555984.835 7        44.900    25624456.207 7 103179158.290 7        44.000    25624457.680 8 101867575.668 8        50.900
C01  36697319.766 7 191092580.904 7        44.500    36697313.078 8 147764883.599 8        48.000    36697307.559 7 155278374.446 7        47.600
C02  39033268.102 6 203256491.926 6        36.100    39033266.215 6 157170804.913 6        41.400    39033260.828 6 165162530.466 6        39.200
C03  37220046.742 7 193814526.838 7        42.600    37220043.555 7 149869656.048 7        46.800    37220037.539 7 157490168.420 7        47.300
C04  37510093.953 6 195324920.298 6        40.900    37510091.645 7 151037601.642 7        45.400    37510085.313 7 158717497.676 7        44.900
C07  36053548.773 7 187740298.452 7        46.600    36053544.781 8 145172682.892 8        49.800    36053535.723 8 152554349.910 8        49.800
C10  37335376.781 7 194415117.497 7        45.000    37335375.910 7 150334107.059 7        45.600    37335365.840 7 157978165.438 7        46.000
C06  40969836.648 5 213340678.540 5        32.600    40969843.789 5 164968559.839 5        34.500    40969832.793 5 173356744.200 5        34.900
C14  25511866.773 6 132846979.628 6        37.600    25511867.840 6 102725711.369 6        40.100    25511857.695 6 107949015.874 6        41.400
C08  37475093.992 7 195142691.297 7        44.200    37475091.590 7 150896732.626 7        46.000    37475082.973 7 158569399.679 7        47.000
C09  40423464.359 6 210495596.595 6        37.500    40423470.297 6 162768577.195 6        38.200    40423459.457 6 171044896.688 6        38.100
> 2013  6 15  4  1  0.0000000  0 32
R21  22537646.273 7 120604034.026 7        44.600    22537645.070 7 120603759.040 7        43.400    22537653.348 5  93802837.241 5        35.800    22537654.074 5  93802845.245 5        35.100
R08  21689382.156 8 116145885.815 8        48.600    21689381.043 7 116145795.823 7        47.300    21689388.148 7  90335620.315 7        43.100    21689388.066 7  90335612.315 7        43.000
G21  25093627.078 5 131867924.948 5        34.900    25093642.41412 102754270.49552        16.300
R09  21814815.102 8 116489664.975 8        48.500    21814814.137 7 116489907.982 7        47.000    21814819.996 6  90603277.731 6        41.800    21814821.367 6  90603273.744 6        41.000
G16  21751468.469 8 114304844.836 8        49.400    21751477.789 6  89068779.20746        37.100
G31  20897976.148 8 109819862.746 8        51.600    20897984.387 7  85573833.14347        44.000    20897984.344 8  85573835.144 8        49.700
G25  25061250.242 5 131697746.921 5        35.600    25061263.535 2 102621672.94642        17.400    25061263.766 5 102621672.955 5        34.300    25061264.855 6  98345763.463 6        41.400
G03  24806469.406 6 130358896.035 6        37.300    24806485.828 3 101578450.32443        18.300
G32  24226002.742 6 127308492.109 6        40.900    24226015.457 3  99201483.21143        22.800
G20  24908602.164 5 130895570.106 5        34.000    24908615.711 3 101996593.87643        20.100
R20  20278059.531 7 108436020.345 7        47.500    20278058.961 7 108435970.350 7        45.600    20278067.227 8  84339181.769 8        48.000    20278067.199 7  84339176.772 7        47.700
G14  22003764.109 7 115630525.901 7        44.500    22003774.637 5  90101806.34145        32.800
R07  23416189.703 6 125348693.849 6        39.900    23416188.898 6 125348653.837 6        38.800    23416203.727 6  97493405.479 6        40.900    23416203.895 6  97493399.480 6        39.800
G29  22386526.867 7 117642048.605 7        45.200    22386536.906 5  91669203.51145        35.200    22386536.820 7  91669197.502 7        43.700
R10  20610536.383 8 109865735.094 8        53.000    20610534.828 8 109865800.088 8        50.200    20610543.922 6  85451251.557 6        41.700    20610543.789 6  85451243.560 6        41.100
G23  25003830.375 6 131396028.636 6        40.300    25003839.887 3 102386551.47243        19.000
R11  22917499.766 7 122464111.297 7        42.500    22917498.949 6 122464163.288 6        40.600    22917508.352 5  95250005.372 5        35.400    22917508.180 5  95250001.380 5        34.600
R19  21348911.039 8 114202250.009 8        48.800    21348910.578 8 114202342.025 8        48.100    21348916.188 7  88824072.780 7        43.900    21348916.406 7  88824070.792 7        43.700
R01  22909130.992 7 122462445.960 7        43.800    22909128.676 7 122462438.967 7        42.600    22909137.805 6  95248588.833 6        36.800    22909138.652 5  95248577.845 5        35.600
G06  22792999.773 7 119778103.510 7        43.400    22793012.566 4  93333693.08844        28.300
J01  37302414.500 6 196025645.262 6        37.400    37302414.359 6 196025384.260 6        41.600    37302427.859 6 152747324.345 6        37.300    37302434.473 6 146382889.320 6        41.600    37302420.57015 159111667.28515        31.500
E12  25608232.992 7 134572243.994 7        45.400    25608242.254 7 100492343.921 7        45.700    25608238.031 7 103113857.167 7        43.600    25608240.051 8 101803104.651 8        50.900
C01  36697330.609 7 191092638.090 7        44.300    36697324.117 8 147764927.807 8        48.500    36697318.766 7 155278420.906 7        47.500
C02  39033356.055 6 203256948.704 6        36.000    39033353.582 6 157171158.099 6        40.500    39033348.262 6 165162901.620 6        39.200
C03  37219938.547 7 193813965.585 7        42.600    37219935.523 7 149869222.049 7        47.300    37219929.605 8 157489712.337 8        48.400
C04  37510090.750 6 195324903.502 6        40.900    37510088.691 7 151037588.632 7        45.100    37510082.277 7 158717484.007 7        45.500
C07  36050891.031 7 187726457.651 7        47.200    36050886.570 8 145161980.306 8        50.000    36050877.590 8 152543103.123 8        50.500
C10  37331692.625 7 194395933.557 7        45.900    37331691.813 7 150319272.829 7        46.500    37331681.871 7 157962576.923 7        46.300
C06  40977576.570 5 213380983.277 5        32.200    40977583.832 5 164999726.033 5        34.600    40977572.785 5 173389495.118 5        34.800
C14  25515444.070 6 132865610.736 6        37.100    25515445.414 6 102740118.061 6        40.000    25515435.137 7 107964155.122 7        42.000
C08  37468565.977 7 195108696.917 7        44.600    37468563.227 7 150870446.023 7        46.200    37468554.813 7 158541776.458 7        47.000
C09  40434085.203 6 210550898.487 6        37.500    40434090.566 6 162811339.909 6        37.900    40434079.832 6 171089833.829 6        37.600
> 2013  6 15  4  1 30.0000000  0 33
R21  22513771.945 7 120476277.103 7        45.100    22513770.980 7 120476002.112 7        43.800    22513780.059 6  93703470.960 6        36.800    22513780.133 6  93703478.963 6        36.200
R08  21701546.336 8 116211026.899 8        48.600    21701545.340 7 116210936.923 7        47.200    21701552.887 7  90386285.530 7        43.700    21701553.055 7  90386277.536 7        43.600
G21  25084296.219 5 131818891.318 5        35.700    25084311.070 2 102716062.55842        16.900
R09  21822793.961 8 116532273.435 8        48.200    21822792.410 7 116532516.452 7        46.800    21822798.301 7  90636417.585 7        42.500    21822800.188 6  90636413.588 6        41.200
G16  21742191.320 8 114256091.742 8        49.700    21742200.211 6  89030789.83246        37.000
G31  20897673.594 8 109818272.418 8        51.100    20897681.746 7  85572593.91747        43.900    20897681.684 8  85572595.918 8        49.200
G25  25078032.54715 131785949.57315        32.000    25078049.11712 102690402.24252        16.900    25078048.48415 102690402.25915        35.800    25078049.73816  98411629.03116        41.100
G03  24784138.352 6 130241546.324 6        39.000    24784155.590 3 101487009.45343        20.600
G32  24234121.008 6 127351151.325 6        40.600    24234133.363 3  99234724.07043        22.900
G20  24912786.20315 130917554.99415        35.100    24912799.40213 102013724.87253        19.900
R20  20265748.164 7 108370183.781 7        47.200    20265746.773 7 108370133.786 7        45.300    20265755.262 8  84287975.603 8        48.100    20265755.164 8  84287970.605 8        48.000
G14  22021076.828 7 115721503.753 7        45.200    22021086.922 5  90172698.09445        33.700
R07  23438163.102 6 125466313.006 6        41.400    23438162.180 6 125466273.044 6        40.400    23438177.555 6  97584886.544 6        38.700    23438176.758 6  97584880.538 6        38.500
G29  22398501.844 7 117704976.256 7        47.000    22398511.348 5  91718238.01545        35.500    22398511.281 7  91718232.007 7        44.000
R10  20606721.633 8 109845401.028 8        52.400    20606720.078 8 109845466.021 8        51.000    20606728.641 6  85435436.175 6        41.300    20606728.832 6  85435428.179 6        41.500
G23  24983759.492 6 131290557.055 6        40.700    24983768.191 3 102304365.88443        19.000
R11  22905375.500 6 122399326.199 6        41.400    22905374.566 6 122399378.204 6        40.800    22905384.398 6  95199617.066 6        36.100    22905384.035 5  95199613.072 5        35.300
R19  21358769.109 8 114254981.773 8        49.500    21358767.945 8 114255073.787 8        48.000    21358773.520 7  88865086.378 7        44.200    21358774.059 7  88865084.380 7        43.700
R01  22902886.727 7 122429073.874 7        43.900    22902885.703 7 122429066.897 7        42.400    22902895.215 6  95222632.785 6        36.900    22902896.238 6  95222621.793 6        36.400
G06  22772766.805 7 119671776.787 7        43.400    22772779.176 4  93250841.20844        28.400
J01  37302032.969 6 196023638.308 6        39.600    37302032.699 6 196023377.307 6        41.100    37302046.355 6 152745760.478 6        37.400    37302052.668 6 146381390.615 6        41.700    37302038.824 5 159110038.064 5        30.900
E12  25592035.055 7 134487123.174 7        45.500    25592043.844 7 100428779.768 7        45.300    25592040.094 7 103048634.803 7        43.800    25592041.984 8 101738711.392 8        50.900
C01  36697342.086 7 191092697.102 7        44.300    36697335.652 8 147764973.430 8        48.000    36697329.902 7 155278468.845 7        47.500
C02  39033443.984 6 203257406.712 6        36.100    39033442.082 6 157171512.223 6        41.600    39033436.699 6 165163273.764 6        40.000
C03  37219831.211 7 193813405.350 7        42.500    37219828.066 7 149868788.817 7        47.900    37219821.988 7 157489257.093 7        47.800
C04  37510087.813 6 195324887.332 6        40.900    37510085.633 7 151037576.112 7        45.400    37510079.133 7 158717470.860 7        45.200
C07  36048233.102 7 187712618.434 7        46.600    36048228.859 8 145151278.938 8        50.100    36048219.840 8 152531857.619 8        49.900
C10  37328002.656 7 194376717.580 7        44.900    37328001.594 7 150304413.832 7        45.600    37327991.750 7 157946962.383 7        46.200
C06  40985291.03115 213421159.34915        31.800    40985299.52315 165030792.73415        35.200    40985288.59815 173422141.47415        34.000
C14  25519095.906 6 132884626.546 6        38.000    25519097.695 6 102754822.214 6        41.300    25519087.574 7 107979606.957 7        42.500
C08  37462060.102 7 195074821.967 7        44.100    37462057.891 7 150844251.767 7        46.200    37462049.160 7 158514250.296 7        47.300
C09  40444694.633 6 210606144.661 6        37.700    40444700.605 6 162854059.538 6        38.100    40444689.953 6 171134725.688 6        38.300
C05  40900072.03115 212977343.94815        32.200    40900076.25815 164687655.12515        34.800    40900069.42616 173061577.98016        36.600
> 2013  6 15  4  2  0.0000000  0 32
R21  22489922.984 7 120348656.606 7        44.800    22489921.902 7 120348381.637 7        43.600    22489929.715 6  93604210.803 6        36.000    22489930.574 5  93604218.799 5        35.300
R08  21713812.508 8 116276706.771 8        49.200    21713811.043 7 116276616.780 7        47.300    21713818.000 7  90437369.786 7        43.400    21713818.168 7  90437361.785 7        43.000
G21  25074968.477 6 131769871.469 6        36.200    25074983.055 2 102677865.38242        17.400
R09  21830795.242 8 116574999.688 8        48.100    21830794.160 7 116575242.698 7        46.500    21830800.582 7  90669649.042 7        43.000    21830802.293 7  90669645.047 7        42.300
G16  21732977.250 8 114207671.950 8        50.200    21732986.223 6  88993060.17046        36.800
G31  20897408.031 8 109816874.752 8        52.300    20897415.945 7  85571504.81547        43.600    20897415.809 8  85571506.816 8        48.600
G25  25094802.37515 131874061.20815        35.700    25094816.34412 102759060.55352        15.600    25094815.72315 102759060.60915        34.900    25094816.96116  98477426.58316        41.900
G03  24761808.773 6 130124207.582 6        38.700    24761826.074 3 101395577.13743        20.600
G32  24242293.320 6 127394096.010 6        39.800    24242305.152 4  99268187.35744        24.200
G20  24917042.078 6 130939920.389 6        38.300    24917055.855 3 102031152.36043        21.700
R20  20253562.898 7 108305029.711 7        47.200    20253562.797 7 108304979.731 7        46.000    20253571.211 8  84237300.266 8        48.000    20253571.059 7  84237295.269 7        47.500
G14  22038453.844 7 115812817.683 7        45.800    22038463.711 5  90243851.72345        34.400
R07  23460128.164 7 125583888.530 7        43.400    23460127.594 7 125583848.542 7        42.600    23460140.324 6  97676333.744 6        37.100    23460139.914 6  97676327.750 6        36.400
G29  22410564.938 7 117768366.439 7        45.300    22410574.633 5  91767632.94745        35.200    22410574.516 7  91767626.944 7        44.400
R10  20602923.305 8 109825156.838 8        52.400    20602921.984 8 109825221.838 8        50.800    20602930.875 6  85419690.687 6        41.800    20602930.828 6  85419682.698 6        40.900
G23  24963712.992 6 131185216.066 6        39.000    24963723.047 3 102222282.05743        19.000
R11  22893244.977 7 122334495.961 7        42.500    22893242.984 6 122334547.970 6        40.900    22893252.211 6  95149193.635 6        36.000    22893251.980 5  95149189.643 5        35.500
R19  21368762.836 8 114308441.546 8        49.700    21368762.023 7 114308533.544 7        47.500    21368767.051 7  88906666.186 7        44.400    21368768.039 7  88906664.195 7        43.600
R01  22896775.453 7 122396401.712 7        43.900    22896774.898 7 122396394.720 7        42.500    22896783.777 5  95197221.086 5        35.200    22896784.543 5  95197210.090 5        35.800
G06  22752572.859 7 119565656.874 7        43.700    22752585.082 4  93168150.49144        29.600
J01  37301639.938 6 196021573.305 6        39.200    37301639.805 6 196021312.296 6        41.100    37301652.965 6 152744151.367 6        36.900    37301660.188 6 146379848.554 6        41.600    37301645.75815 159108361.95615        32.100
E12  25575857.523 7 134402107.564 7        45.500    25575865.797 7 100365294.172 7        45.100    25575862.090 7 102983493.047 7        43.900    25575863.922 8 101674397.718 8        51.000
C01  36697353.664 7 191092758.494 7        44.500    36697347.152 8 147765020.888 8        48.100    36697341.590 7 155278518.722 7        47.800
C02  39033532.289 5 203257866.403 5        35.800    39033530.250 6 157171867.658 6        40.900    39033524.879 6 165163647.277 6        39.600
C03  37219723.570 7 193812846.721 7        42.600    37219720.473 7 149868356.839 7        46.900    37219714.570 7 157488803.155 7        47.300
C04  37510084.875 6 195324872.348 6        40.900    37510082.098 7 151037564.517 7        45.500    37510076.027 7 158717458.673 7        45.400
C07  36045576.336 8 187698781.684 8        48.000    36045572.016 8 145140579.478 8        50.100    36045563.082 8 152520614.125 8        50.000
C10  37324306.813 7 194357470.391 7        45.500    37324305.148 7 150289530.687 7        46.000    37324295.301 7 157931322.464 7        45.900
C06  40992982.773 5 213461206.854 5        32.400    40992989.855 5 165061760.006 5        34.900    40992979.750 5 173454683.351 5        34.700
C14  25522820.664 6 132904026.290 6        38.000    25522823.371 7 102769823.250 7        42.000    25522812.965 6 107995370.789 6        41.800
C08  37455578.492 7 195041067.195 7        45.000    37455575.828 7 150818150.445 7        46.200    37455567.273 7 158486821.788 7        46.700
C09  40455293.688 6 210661334.929 6        37.200    40455299.262 6 162896735.933 6        38.100    40455288.621 6 171179572.114 6        37.700