     3.02           OBSERVATION DATA    M (MIXED)           RINEX VERSION / TYPE
NetR9 4.80          Receiver Operator   15-JUN-13 00:00:00  PGM / RUN BY / DATE
GMSD                                                        MARKER NAME
21749S002                                                   MARKER NUMBER
GEODETIC                                                    MARKER TYPE
GMSD                JAXA                                    OBSERVER / AGENCY
5049K72188          TRIMBLE NETR9       4.80                REC # / TYPE / VERS
4938353448          TRM59800.00     SCIS                    ANT # / TYPE
 -3607665.3832  4147868.2600  3223717.2637                  APPROX POSITION XYZ
        0.0000        0.0000        0.0000                  ANTENNA: DELTA H/E/N
G   12 C1C L1C S1C C2W L2W S2W C2X L2X S2X C5X L5X S5X      SYS / # / OBS TYPES
    30.000                                                  INTERVAL
  2013     6    15     4     0    0.0000000     GPS         TIME OF FIRST OBS
G L2X -0.25000                                              SYS / PHASE SHIFT
GIOVE-A if present is mapped to satellite ID 51             COMMENT
GIOVE-B if present is mapped to satellite ID 52             COMMENT
DBHZ                                                        SIGNAL STRENGTH UNIT
                                                            END OF HEADER
> 2013  6 15  4  0  0.0000000  0 4
G21  25112295.359 5 131966023.234 5        33.900    25112311.836 2 102830710.57242        13.900
G16  21770214.141 8 114403352.013 8        49.200    21770223.160 6  89145537.95846        36.400
G31  20898690.969 8 109823617.733 8        52.000    20898699.059 7  85576759.12647        43.800    20898699.066 8  85576761.119 8        49.500
G25  25027628.094 5 131521070.909 5        33.600    25027643.137 2 102484003.45142        16.900    25027644.031 6 102484003.454 6        36.400    25027645.512 6  98213830.219 6        40.600
> 2013  6 15  4  0 30.0000000  0 4
G21  25102960.992 5 131916969.179 5        33.100    25102976.102 2 102792486.71442        14.800
G16  21760809.867 8 114353930.992 8        49.800    21760818.625 6  89107028.12446        36.800
G31  20898315.141 8 109821644.386 8        52.000    20898324.102 7  85575221.44947        43.700    20898323.656 8  85575223.443 8        50.300
G25  25044447.56315 131609453.27315        31.900    25044462.21512 102552872.77052        16.300    25044461.89815 102552872.81615        35.500    25044463.06616  98279829.98716        41.100
> 2013  6 15  4  1  0.0000000  0 4
G21  25093627.078 5 131867924.948 5        34.900    25093642.41412 102754270.49552        16.300
G16  21751468.469 8 114304844.836 8        49.400    21751477.789 6  89068779.20746        37.100
G31  20897976.148 8 109819862.746 8        51.600    20897984.387 7  85573833.14347        44.000    20897984.344 8  85573835.144 8        49.700
G25  25061250.242 5 131697746.921 5        35.600    25061263.535 2 102621672.94642        17.400    25061263.766 5 102621672.955 5        34.300    25061264.855 6  98345763.463 6        41.400
> 2013  6 15  4  1 30.0000000  0 4
G21  25084296.219 5 131818891.318 5        35.700    25084311.070 2 102716062.55842        16.900
G16  21742191.320 8 114256091.742 8        49.700    21742200.211 6  89030789.83246        37.000
G31  20897673.594 8 109818272.418 8        51.100    20897681.746 7  85572593.91747        43.900    20897681.684 8  85572595.918 8        49.200
G25  25078032.54715 131785949.57315        32.000    25078049.11712 102690402.24252        16.900    25078048.48415 102690402.25915        35.800    25078049.73816  98411629.03116        41.100
> 2013  6 15  4  2  0.0000000  0 4
G21  25074968.477 6 131769871.469 6        36.200    25074983.055 2 102677865.38242        17.400
G16  21732977.250 8 114207671.950 8        50.200    21732986.223 6  88993060.17046        36.800
G31  20897408.031 8 109816874.752 8        52.300    20897415.945 7  85571504.81547        43.600    20897415.809 8  85571506.816 8        48.600
G25  25094802.37515 131874061.20815        35.700    25094816.34412 102759060.55352        15.600    25094815.72315 102759060.60915        34.900    25094816.96116  98477426.58316        41.900
> 2013  6 15  4  2 30.0000000  0 4
G21  25065642.922 6 131720867.597 6        36.500    25065657.195 2 102639680.58042        16.900
G16  21723826.555 8 114159585.161 8        49.700    21723835.355 6  88955589.99246        37.200
G31  20897178.852 8 109815671.006 8        51.500    20897186.797 7  85570566.82847        43.600    20897186.277 8  85570568.822 8        49.900
G25  25111550.477 5 131962081.059 5        33.900    25111564.938 2 102827647.39642        17.400    25111565.469 5 102827647.392 5        35.200    25111566.844 7  98543155.581 7        43.400
> 2013  6 15  4  3  0.0000000  0 4
G21  25056322.766 6 131671883.047 6        37.500    25056335.461 2 102601510.90242        16.900
G16  21714739.422 8 114111832.215 8        49.400    21714748.266 6  88918379.94846        36.800
G31  20896986.953 8 109814663.246 8        51.300    20896995.016 7  85569781.55947        43.900    20896994.660 8  85569783.560 8        49.500
G25  25128283.914 5 132050009.322 5        35.200    25128297.918 2 102896162.90642        16.300    25128297.520 6 102896162.902 6        37.900    25128300.176 7  98608816.248 7        43.200
> 2013  6 15  4  3 30.0000000  0 4
G21  25047003.617 5 131622918.831 5        35.700    25047017.699 2 102563357.04742        15.600
G16  21705715.602 8 114064411.321 8        49.100    21705724.363 6  88881428.63346        36.900
G31  20896832.367 8 109813851.063 8        52.600    20896840.219 7  85569148.68447        44.400    20896840.133 8  85569150.685 8        49.300
G25  25144997.828 5 132137844.141 5        34.500    25145012.305 2 102964605.46842        17.400    25145012.207 6 102964605.500 6        38.200    25145014.973 7  98674407.054 7        44.200
> 2013  6 15  4  4  0.0000000  0 4
G21  25037691.797 5 131573978.571 5        34.400    25037705.098 2 102525221.87542        17.800
G16  21696754.805 8 114017323.104 8        49.700    21696763.395 6  88844736.55946        37.400
G31  20896715.234 8 109813236.397 8        51.200    20896723.277 7  85568669.72147        43.900    20896723.301 8  85568671.722 8        49.400
G25  25161691.64114 132225585.66114        29.400    25161709.37913 103032975.42353        18.300    25161708.99216 103032975.48016        37.100    25161710.93417  98739928.27717        42.700
> 2013  6 15  4  4 30.0000000  0 4
G21  25028383.211 5 131525064.272 5        33.300    25028396.594 2 102487106.96242        16.900
G16  21687857.484 8 113970566.851 8        49.600    21687866.387 6  88808303.15646        37.000
G31  20896636.039 8 109812820.098 8        50.700    20896644.254 7  85568345.32747        43.900    20896643.988 8  85568347.328 8        49.800
G25  25178373.00815 132313233.08615        34.300    25178388.06312 103101272.06552        17.400    25178387.67616 103101272.07616        38.800    25178389.67617  98805379.16117        43.200
> 2013  6 15  4  5  0.0000000  0 4
G21  25019079.813 5 131476178.141 5        35.200    25019094.688 2 102449013.92742        16.300
G16  21679022.820 8 113924141.993 8        49.900    21679032.004 6  88772127.98046        37.300
G31  20896595.023 8 109812602.767 8        51.500    20896603.445 7  85568175.97247        43.900    20896603.273 8  85568177.972 8        49.600
G25  25195033.39815 132400785.29015        33.400    25195048.53912 103169494.50952        17.800    25195047.83216 103169494.50516        37.800    25195049.85917  98870758.96917        42.800
> 2013  6 15  4  5 30.0000000  0 4
G21  25009783.375 6 131427322.248 6        36.800    25009796.848 2 102410944.53642        16.900
G16  21670251.766 8 113878047.890 8        51.000    21670260.594 6  88736210.53746        37.600
G31  20896591.688 8 109812585.321 8        51.600    20896599.746 7  85568162.37047        43.800    20896599.508 8  85568164.371 8        49.600
G25  25211677.758 6 132488241.354 6        37.100    25211690.773 3 103237642.00143        18.600    25211690.508 6 103237642.019 6        36.600    25211691.918 6  98936066.996 6        41.500
> 2013  6 15  4  6  0.0000000  0 4
G21  25000492.242 6 131378499.656 6        36.400    25000507.266 2 102372901.02242        16.900
G16  21661543.305 8 113832284.810 8        49.700    21661552.516 6  88700551.04546        37.400
G31  20896626.391 8 109812769.364 8        52.100    20896634.242 7  85568305.76947        44.600    20896634.070 8  85568307.770 8        49.900
G25  25228300.953 5 132575601.346 5        34.300    25228314.477 2 103305714.66942        16.900    25228315.027 5 103305714.674 5        35.900    25228316.090 6  99001303.299 6        40.500
> 2013  6 15  4  6 30.0000000  0 4
G21  24991209.086 6 131329712.943 6        36.100    24991223.668 3 102334885.49643        18.300
G16  21652897.547 8 113786852.324 8        50.200    21652906.516 6  88665149.14346        37.700
G31  20896700.406 8 109813156.140 8        52.100    20896708.344 7  85568607.15847        44.000    20896708.191 8  85568609.151 8        49.600
G25  25244906.844 5 132662864.787 5        35.700    25244920.172 2 103373712.09842        15.600    25244920.813 5 103373712.154 5        35.000    25244922.488 6  99066467.527 6        40.500
> 2013  6 15  4  7  0.0000000  0 4
G21  24981931.438 6 131280964.409 6        36.300    24981947.238 2 102296899.67742        17.400
G16  21644314.844 8 113741749.991 8        50.200    21644323.703 6  88630004.51746        37.200
G31  20896812.719 8 109813746.906 8        51.500    20896820.590 7  85569067.48447        43.700    20896820.535 8  85569069.478 8        49.600
G25  25261492.938 5 132750031.084 5        34.700    25261508.047 2 103441633.90242        16.900    25261507.926 6 103441633.876 6        36.600    25261509.191 6  99131559.163 6        41.800
> 2013  6 15  4  7 30.0000000  0 4
G21  24972663.438 6 131232256.606 6        37.200    24972678.625 2 102258945.66042        17.400
G16  21635795.141 8 113696977.580 8        50.300    21635803.695 6  88595116.96046        37.800
G31  20896964.359 8 109814542.430 8        51.500    20896972.348 7  85569687.36147        43.800    20896972.285 8  85569689.361 8        49.800
G25  25278061.219 5 132837099.424 5        31.200    25278076.621 2 103509479.29342        15.600    25278076.910 6 103509479.291 6        36.000    25278078.410 6  99196577.681 6        41.100
> 2013  6 15  4  8  0.0000000  0 4
G21  24963402.852 5 131183591.025 5        35.000    24963416.191 2 102221024.50742        15.600
G16  21627337.492 8 113652533.936 8        49.900    21627346.199 6  88560485.58146        37.500
G31  20897154.313 8 109815542.940 8        53.100    20897162.613 7  85570466.96847        44.300    20897162.371 8  85570468.969 8        50.200
G25  25294611.141 5 132924068.703 5        31.800    25294626.520 2 103577247.48042        15.600    25294626.492 6 103577247.513 6        36.900    25294628.309 7  99261522.196 7        42.200
> 2013  6 15  4  8 30.0000000  0 4
G21  24954149.625 6 131134970.661 6        36.000    24954164.270 2 102183138.61142        16.300
G16  21618942.883 8 113608418.673 8        50.500    21618951.305 6  88526110.08746        37.500
G31  20897384.328 8 109816750.028 8        53.000    20897392.582 7  85571407.54547        43.900    20897392.250 8  85571409.546 8        49.600
G25  25311140.680 5                        31.200
> 2013  6 15  4  9  0.0000000  0 4
G21  24944906.188 5 131086398.324 5        34.500    24944920.641 2 102145290.20442        15.600
G16  21610610.641 8 113564632.284 8        50.900    21610619.094 6  88491990.85646        37.700
G31  20897653.484 8 109818165.404 8        52.100    20897661.789 7  85572510.42247        44.100    20897661.188 8  85572512.423 8        49.800
G25  25327654.85915 133097708.76115        31.800    25327669.28912 103712551.33852        16.900    25327669.30515 103712551.32715        35.100    25327670.78516  99391188.30616        41.500
> 2013  6 15  4  9 30.0000000  0 4
G21  24935673.555 6 131037875.919 6        36.100    24935686.910 2 102107480.61142        15.600
G16  21602340.813 8 113521173.441 8        50.300    21602349.461 6  88458126.85746        38.100
G31  20897962.508 8 109819789.394 8        53.000    20897970.738 7  85573775.87247        44.300    20897970.465 8  85573777.866 8        49.600
G25  25344147.164 5 133184378.564 5        35.000    25344161.914 2 103780086.10642        17.800    25344161.770 5 103780086.123 5        35.700    25344164.465 7  99455909.148 7        42.700
> 2013  6 15  4 10  0.0000000  0 4
G21  24926449.664 6 130989406.346 6        37.200    24926463.176 2 102069712.17842        15.600
G16  21594133.195 8 113478042.354 8        50.900    21594141.531 6  88424518.26546        38.600
G31  20898311.453 8 109821623.775 8        52.600    20898319.504 7  85575205.25347        44.900    20898319.633 8  85575207.254 8        49.500
G25  25360619.789 5 133270947.657 5        34.100    25360634.664 2 103847542.54642        14.800    25360634.469 5 103847542.481 5        32.900    25360637.922 6  99520554.831 6        40.400
> 2013  6 15  4 10 30.0000000  0 4
G21  24917236.641 6 130940991.961 6        37.000    24917250.418 2 102031986.81042        16.900
G16  21585987.656 8 113435238.404 8        50.900    21585996.238 6  88391164.58246        38.400
G31  20898700.539 8 109823669.362 8        52.700    20898708.906 7  85576799.21247        43.400    20898708.418 8  85576801.213 8        49.800
G25  25377075.148 6 133357415.714 6        36.700    25377089.766 2 103914920.12642        15.600    25377089.910 5 103914920.107 5        35.900    25377092.492 7  99585125.050 7        42.400
> 2013  6 15  4 11  0.0000000  0 4
G21  24908034.523 6 130892634.655 6        37.700    24908048.234 2 101994305.91142        17.800
G16  21577904.000 8 113392760.792 8        51.000    21577912.703 6  88358065.19046        38.300
G31  20899130.352 8 109825927.000 8        52.100    20899138.867 7  85578558.40147        44.400    20899138.617 8  85578560.402 8        49.900
G25  25393509.453 6 133443781.642 6        37.600    25393524.867 2 103982218.16942        16.900    25393524.512 5 103982218.150 5        34.800    25393527.008 7  99649618.990 7        42.200
> 2013  6 15  4 11 30.0000000  0 4
G21  24898844.672 6 130844338.172 6        38.400    24898858.441 3 101956672.35143        18.300
G16  21569883.219 8 113350609.957 8        51.200    21569892.078 6  88325220.42546        38.300
G31  20899600.867 8 109828398.591 8        51.200    20899609.316 7  85580484.30247        44.300    20899609.051 8  85580486.303 8        49.900
G25  25409925.07815 133530045.89015        35.300    25409941.33612 104049436.85552        16.300    25409940.45716 104049436.90316        36.000    25409942.36316  99714036.96016        41.800
> 2013  6 15  4 12  0.0000000  0 4
G21  24889665.586 6 130796103.608 6        38.100    24889679.141 2 101919087.10242        17.400
G16  21561924.172 8 113308784.162 8        50.600    21561932.695 6  88292628.94746        38.700
G31  20900111.813 8 109831083.841 8        51.000    20900119.605 7  85582576.69947        43.900    20900119.723 8  85582578.700 8        49.300
G25  25426321.586 6 133616206.636 6        36.900    25426337.258 3 104116575.12243        18.300    25426336.102 6 104116575.117 6        36.600    25426337.820 7  99778377.726 7        42.500
> 2013  6 15  4 12 30.0000000  0 4
G21  24880499.109 6 130747934.151 6        37.300    24880512.617 2 101881552.51942        17.400
G16  21554026.719 8 113267283.556 8        51.500    21554035.305 6  88260290.85546        38.400
G31  20900663.734 8 109833984.758 8        52.100    20900672.090 7  85584837.15047        44.500    20900671.770 8  85584839.144 8        49.800
G03  24294185.125 6 127666865.526 6        39.200    24294200.199 3  99480773.95343        20.400
> 2013  6 15  4 13  0.0000000  0 4
G21  24871344.648 6 130699832.346 6        37.600    24871358.875 2 101844070.65942        17.400
G16  21546191.461 8 113226107.898 8        50.600    21546199.848 6  88228205.96746        38.500
G31  20901256.906 8 109837102.680 8        52.400    20901265.461 7  85587266.68647        44.000    20901265.047 8  85587268.687 8        49.900
G03  24272016.391 6 127550368.242 6        40.000    24272031.594 3  99389997.15243        21.800
> 2013  6 15  4 13 30.0000000  0 4
G21  24862205.266 6 130651799.865 6        36.900    24862219.590 2 101806642.87442        17.400
G16  21538417.258 8 113185256.365 8        50.000    21538425.336 6  88196373.64946        38.600
G31  20901891.344 8 109840437.787 8        52.400    20901899.867 7  85589865.46747        43.800    20901899.461 8  85589867.468 8        49.800
G03  24249859.758 6 127433935.917 6        40.800    24249875.090 3  99299271.03643        23.000
> 2013  6 15  4 14  0.0000000  0 4
G21  24853078.125 5 130603839.427 5        35.300    24853092.555 2 101769271.13342        17.800
G16  21530705.109 8 113144727.759 8        50.300    21530713.727 6  88164792.95546        38.400
G31  20902567.805 8 109843991.393 8        52.000    20902576.520 7  85592634.49347        43.700    20902576.281 8  85592636.500 8        50.000
G03  24227715.938 6 127317570.783 6        41.300    24227730.781 3  99208597.23243        22.600
> 2013  6 15  4 14 30.0000000  0 4
G21  24843965.109 5 130555953.280 5        35.400    24843980.207 2 101731957.29342        16.900
G16  21523054.094 8 113104521.598 8        50.500    21523062.473 6  88133463.51246        38.000
G31  20903286.047 8 109847764.483 8        51.500    20903294.105 7  85595574.54547        43.600    20903293.813 8  85595576.546 8        49.600
G03  24205584.422 6 127201275.128 6        40.500    24205599.883 3  99117977.56143        20.100
> 2013  6 15  4 15  0.0000000  0 4
G21  24834867.805 5 130508144.920 5        35.900    24834882.285 3 101694704.15143        18.600
G16  21515464.508 8 113064638.816 8        50.700    21515473.199 6  88102386.05646        38.600
G31  20904046.016 8 109851759.366 8        52.700    20904054.699 7  85598687.42847        43.200    20904054.703 8  85598689.428 8        49.800
G03  24183469.070 6 127085052.466 6        41.500    24183483.688 3  99027414.74843        22.800
> 2013  6 15  4 15 30.0000000  0 4
G21  24825785.688 6 130460415.714 6        36.400    24825798.652 2 101657512.70642        16.900
G16  21507936.305 8 113025077.662 8        50.300    21507944.938 6  88071559.21446        38.600
G31  20904848.719 8 109855975.746 8        52.800    20904856.414 7  85601972.89347        43.500    20904856.391 8  85601974.894 8        50.000
G03  24161366.180 6 126968903.824 6        41.400    24161381.145 3  98936909.62843        23.400
> 2013  6 15  4 16  0.0000000  0 4
G21  24816718.641 6 130412768.456 6        36.700    24816731.898 2 101620384.99142        16.900
G16  21500469.148 8 112985837.710 8        50.900    21500478.117 6  88040982.66246        38.700
G31  20905693.391 8 109860414.794 8        53.400    20905701.406 7  85605431.87147        44.600    20905701.211 8  85605433.872 8        49.300
G03  24139278.055 6 126852832.129 6        41.600    24139292.887 3  98846464.48943        22.800
> 2013  6 15  4 16 30.0000000  0 4
G21  24807666.891 6 130365205.288 6        36.400    24807680.781 2 101583322.88242        17.800
G16  21493062.617 8 112946917.981 8        51.000    21493071.418 6  88010655.63246        38.700
G31  20906580.414 8 109865078.042 8        52.500    20906588.660 7  85609065.55247        44.100    20906588.320 8  85609067.553 8        49.500
G03  24117205.742 6 126736839.821 6        40.800    24117219.883 3  98756081.20643        22.900
> 2013  6 15  4 17  0.0000000  0 4
G21  24798632.688 6 130317729.270 6        36.000    24798645.957 2 101546328.66842        16.900
G16  21485717.609 8 112908318.817 8        51.200    21485726.125 6  87980578.38646        38.400
G31  20907511.070 8 109869966.689 8        53.400    20907519.223 7  85612874.86947        43.700    20907518.859 8  85612876.870 8        50.200
G03  24095148.336 6 126620929.342 6        41.000    24095162.145 3  98665761.60743        22.300
> 2013  6 15  4 17 30.0000000  0 4
G21  24789615.680 6 130270341.897 6        37.700    24789629.453 2 101509403.46442        17.800
G16  21478433.188 8 112870038.668 8        51.200    21478441.813 6  87950749.72946        38.800
G31  20908484.445 8 109875081.108 8        52.500    20908492.582 7  85616860.10947        44.300    20908492.445 8  85616862.110 8        49.300
G03  24073106.438 6 126505102.202 6        39.800    24073120.742 3  98575506.97443        21.800
> 2013  6 15  4 18  0.0000000  0 4
G21  24780615.945 6 130223045.768 6        38.300    24780629.352 3 101472549.40043        19.300
G16  21471209.563 8 112832077.141 8        50.900    21471217.965 6  87921169.34046        39.300
G31  20909500.609 8 109880422.667 8        52.000    20909508.555 7  85621022.34447        43.900    20909508.328 8  85621024.344 8        49.600
G03  24051082.297 6 126389361.081 6        40.500    24051095.738 3  98485319.41343        23.000
> 2013  6 15  4 18 30.0000000  0 4
G21  24771632.633 6 130175844.197 6        38.100    24771646.273 2 101435769.02942        16.300
G16  21464046.180 8 112794434.497 8        51.100    21464054.441 6  87891837.43346        39.300
G31  20910560.625 8 109885993.174 8        52.800    20910569.520 7  85625362.98047        43.900    20910569.152 8  85625364.974 8        49.600
G03  24029074.523 6 126273708.982 6        40.800    24029088.160 4  98395201.15044        24.900
> 2013  6 15  4 19  0.0000000  0 4
G21  24762669.406 6 130128738.627 6        38.200    24762683.648 3 101399063.46143        18.600
G16  21456943.375 8 112757109.010 8        51.200    21456951.988 6  87862752.67546        39.000
G31  20911664.320 8 109891792.733 8        52.000    20911672.965 7  85629882.10247        43.300    20911672.719 8  85629884.103 8        50.000
G03  24007082.719 6 126158147.586 6        40.000    24007096.707 3  98305153.59243        22.500
> 2013  6 15  4 19 30.0000000  0 4
G21  24753722.391 6 130081732.653 6        37.000    24753738.336 3 101362435.46543        18.600
G16  21449900.953 8 112720101.127 8        51.200    21449909.145 6  87833915.39346        39.200
G31  20912812.094 8 109897823.285 8        52.700    20912820.160 7  85634581.20947        43.900    20912819.801 8  85634583.210 8        49.600
G03  23985110.313 6 126042680.032 6        38.800    23985123.926 3  98215179.12443        22.600
> 2013  6 15  4 20  0.0000000  0 4
G21  24744797.586 6 130034827.811 6        37.300    24744812.574 2 101325886.39942        17.400
G16  21442919.023 8 112683409.351 8        50.100    21442927.262 6  87805324.43346        39.500
G31  20914003.641 8 109904085.305 8        53.000    20914012.059 7  85639460.68947        44.200    20914012.172 8  85639462.689 8        49.300
G03  23963154.813 6 125927308.253 6        40.400    23963168.777 3  98125279.30843        22.900
> 2013  6 15  4 20 30.0000000  0 4
G21  24735891.250 6 129988026.959 6        38.000    24735906.531 2 101289418.27942        16.900
G16  21435996.273 8 112647033.396 8        50.100    21436005.254 6  87776979.57146        39.400
G31  20915239.773 8 109910580.249 8        53.200    20915247.918 7  85644521.66747        44.100    20915247.715 8  85644523.661 8        49.300
G03  23941219.695 6 125812034.707 6        40.600    23941233.926 4  98035456.02644        24.900
> 2013  6 15  4 21  0.0000000  0 4
G21  24727006.539 6 129941331.761 6        38.900    24727020.531 3 101253032.52443        19.000
G16  21429134.555 8 112610971.850 8        50.900    21429143.313 6  87748879.68846        39.400
G31  20916520.164 8 109917308.458 8        53.000    20916528.129 7  85649764.40747        43.800    20916528.133 8  85649766.408 8        49.500
G03  23919302.680 6 125696861.097 6        39.400    23919315.996 4  97945710.59944        24.700
> 2013  6 15  4 21 30.0000000  0 4
G21  24718141.102 6 129894745.914 6        39.400    24718155.570 3 101216731.95643        19.600
G16  21422331.969 8 112575225.209 8        51.200    21422340.746 6  87721025.19146        38.900
G31  20917845.094 8 109924272.290 8        53.000    20917853.121 7  85655190.74647        43.900    20917852.953 8  85655192.746 8        48.700
G03  23897405.211 6 125581790.849 6        39.700    23897419.215 4  97856045.70944        25.300
> 2013  6 15  4 22  0.0000000  0 4
G21  24709297.875 6 129848270.743 6        39.800    24709311.340 3 101180517.59743        19.900
G16  21415589.109 8 112539791.927 8        50.500    21415597.500 6  87693414.85746        39.700
G31  20919215.438 8 109931471.675 8        52.900    20919223.266 7  85660800.62947        44.500    20919223.086 8  85660802.630 8        49.100
G03  23875528.188 6 125466825.352 6        39.900    23875541.414 4  97766462.42444        24.200
> 2013  6 15  4 22 30.0000000  0 4
G21  24700474.016 6 129801909.229 6        37.200    24700489.273 3 101144391.81743        18.300
G16  21408905.992 8 112504671.937 8        51.900    21408914.520 6  87666048.64746        40.400
G31  20920630.180 8 109938908.591 8        52.700    20920639.031 7  85666595.61847        43.800    20920639.047 8  85666597.611 8        49.100
G03  23853671.016 6 125351967.719 6        40.300    23853685.012 4  97676963.15444        24.800
> 2013  6 15  4 23  0.0000000  0 4
G21  24691674.266 6 129755663.707 6        36.800    24691688.016 2 101108356.43742        15.600
G16  21402282.398 8 112469864.888 8        51.200    21402291.383 6  87638926.28846        39.600
G31  20922090.930 8 109946583.643 8        52.800    20922099.230 7  85672576.14547        43.500    20922098.723 8  85672578.146 8        49.600
G03  23831834.539 6 125237220.031 6        38.900    23831848.258 3  97587549.59143        23.800
> 2013  6 15  4 23 30.0000000  0 4
G21  24682896.031 6 129709536.606 6        37.100    24682909.742 2 101072413.33542        16.300
G16  21395718.164 8 112435369.403 8        51.800    21395726.949 6  87612046.71746        40.000
G31  20923597.078 8 109954497.877 8        52.700    20923605.414 7  85678743.06447        44.100    20923605.305 8  85678745.065 8        49.400
G03  23810020.422 6 125122584.613 6        39.900    23810034.262 3  97498223.49243        23.200
> 2013  6 15  4 24  0.0000000  0 4
G21  24674141.727 6 129663530.057 6        38.200    24674156.082 3 101036564.13843        18.300
G16  21389212.844 8 112401184.552 8        51.400    21389221.723 6  87585409.19246        39.200
G31  20925148.813 8 109962652.183 8        52.600    20925156.871 7  85685097.04647        44.000    20925156.914 8  85685099.047 8        49.700
G03  23788226.953 6 125008063.678 6        39.700    23788240.582 4  97408986.56544        24.400
> 2013  6 15  4 24 30.0000000  0 4
G21  24665411.344 6 129617647.190 6        39.400    24665425.043 3 101000811.33543        20.400
G16  21382767.141 8 112367310.221 8        51.000    21382775.242 6  87559013.63346        39.200
G31  20926746.617 8 109971048.411 8        52.900    20926754.512 7  85691639.54147        43.800    20926754.438 8  85691641.535 8        49.500
G03  23766456.672 6 124893660.212 6        39.400    23766470.098 4  97319841.21344        25.000
> 2013  6 15  4 25  0.0000000  0 4
G21  24656704.945 6 129571889.705 6        39.900    24656717.598 3 100965156.22543        20.100
G16  21376379.453 8 112333745.119 8        50.900    21376388.332 6  87532859.02846        39.600
G31  20928390.484 8 109979686.961 8        52.700    20928398.750 7  85698370.85147        43.900    20928398.523 8  85698372.852 8        49.300
G03  23744709.477 6 124779376.339 6        39.700    23744722.242 4  97230789.01844        24.100
> 2013  6 15  4 25 30.0000000  0 4
G21  24648020.898 6 129526260.655 6        39.900    24648033.977 3 100929601.22643        21.100
G16  21370051.016 8 112300489.340 8        50.500    21370059.906 6  87506945.46346        40.500
G31  20930080.422 8 109988569.240 8        51.800    20930089.094 7  85705292.08247        43.400    20930088.695 8  85705294.082 8        49.800
G03  23722984.766 6 124665214.774 6        38.800    23722998.480 3  97141832.10343        23.500
> 2013  6 15  4 26  0.0000000  0 4
G21  24639361.695 6 129480761.472 6        38.300    24639376.605 3 100894147.44643        19.000
G16  21363781.516 8 112267541.013 8        51.100    21363790.133 6  87481271.47846        39.800
G31  20931817.547 8 109997695.720 8        52.200    20931825.656 7  85712403.60647        43.800    20931825.234 8  85712405.607 8        49.500
G03  23701284.109 6 124551176.685 6        40.500    23701296.469 4  97052971.41244        25.800
> 2013  6 15  4 26 30.0000000  0 4
G21  24630729.414 6 129435395.224 6        38.300    24630743.301 3 100858797.24343        19.600
G16  21357569.734 8 112234900.712 8        50.000    21357578.402 6  87455837.50646        39.800
G31  20933600.789 8 110007068.135 8        53.000    20933609.355 7  85719706.76247        43.600    20933608.848 8  85719708.763 8        50.100
G03  23679606.906 6 124437264.897 6        39.700    23679619.570 3  96964209.14043        22.900
> 2013  6 15  4 27  0.0000000  0 4
G21  24622121.922 6 129390164.512 6        38.800    24622135.668 2 100823552.61242        17.400
G16  21351417.469 8 112202566.849 8        50.300    21351425.621 6  87430642.31146        40.100
G31  20935431.789 8 110016687.643 8        52.900    20935439.652 7  85727202.45447        44.200    20935439.344 8  85727204.455 8        50.200
G03  23657954.859 6 124323482.357 6        40.100    23657967.641 3  96875547.59643        23.200
> 2013  6 15  4 27 30.0000000  0 4
G21  24613541.898 6 129345071.631 6        40.000    24613553.871 3 100788415.34443        19.600
G16  21345322.109 8 112170539.103 8        50.400    21345330.488 6  87405685.65246        39.600
G31  20937309.180 8 110026555.101 8        53.400    20937317.613 7  85734891.35447        43.800    20937317.402 8  85734893.355 8        50.000
G03  23636327.844 6 124209831.360 6        40.000    23636340.098 4  96786988.53544        24.300
> 2013  6 15  4 28  0.0000000  0 4
G21  24604987.211 6 129300118.953 6        40.900    24604999.848 3 100753387.37643        19.600
G16  21339285.516 8 112138816.010 8        50.600    21339294.449 6  87380966.37846        40.000
G31  20939234.133 8 110036670.983 8        52.700    20939242.594 7  85742773.83747        43.400    20939242.559 8  85742775.838 8        49.600
G03  23614725.992 6 124096314.062 6        40.400    23614738.719 4  96698533.63544        25.800
> 2013  6 15  4 28 30.0000000  0 4
G21  24596459.844 6 129255308.186 6        39.100    24596472.941 3 100718469.98143        19.900
G16  21333306.656 8 112107397.217 8        50.800    21333315.711 6  87356484.23646        39.900
G31  20941206.594 8 110047036.744 8        53.000    20941214.645 7  85750851.02647        43.900    20941214.598 8  85750853.027 8        49.100
G03  23593150.516 6 123982932.535 6        41.100    23593163.039 4  96610184.55944        25.100
> 2013  6 15  4 29  0.0000000  0 4
G21  24587958.836 6 129210642.397 6        38.100    24587973.422 3 100683665.56543        19.300
G16  21327385.508 8 112076281.871 8        51.000    21327394.242 6  87332238.53246        39.400
G31  20943227.234 8 110057653.723 8        52.600    20943235.270 7  85759123.96647        43.300    20943235.309 8  85759125.959 8        49.300
G03  23571599.969 6 123869689.200 6        40.500    23571613.816 4  96521943.16844        24.800
> 2013  6 15  4 29 30.0000000  0 4
G21  24579488.055 6 129166123.588 6        38.700    24579501.832 3 100648975.74243        19.000
G16  21321522.445 8 112045469.290 8        50.800    21321530.980 6  87308228.75446        40.600
G31  20945295.359 8 110068522.611 8        53.000    20945303.813 7  85767593.19547        43.800    20945303.617 8  85767595.195 8        49.800
G03  23550077.398 6 123756586.501 6        40.900    23550090.359 4  96433811.34344        26.600
> 2013  6 15  4 30  0.0000000  0 4
G21  24571045.008 6 129121754.282 6        39.100    24571057.941 3 100614402.34943        19.900
G16  21315716.602 8 112014958.650 8        51.000    21315724.734 6  87284454.25846        39.700
G31  20947411.836 8 110079644.666 8        52.500    20947420.648 7  85776259.71447        43.500    20947420.410 8  85776261.707 8        49.800
G03  23528582.008 6 123643626.917 6        41.700    23528595.707 4  96345791.03444        27.000
> 2013  6 15  4 30 30.0000000  0 4
G21  24562629.945 6 129077537.633 6        39.000    24562644.547 3 100579947.92643        19.600
G16  21309968.031 8 111984749.876 8        50.900    21309976.516 6  87260914.97946        40.500
G31  20949576.734 8 110091021.454 8        52.200    20949585.313 7  85785124.71747        43.900    20949585.055 8  85785126.718 8        49.400
G03  23507114.258 6 123530813.351 6        41.000    23507128.035 4  96257884.52244        27.000
> 2013  6 15  4 31  0.0000000  0 4
G21  24554246.141 6 129033475.536 6        38.800    24554259.754 2 100545613.89542        17.800
G16  21304276.461 8 111954841.483 8        50.900    21304284.957 6  87237609.76446        40.400
G31  20951790.211 8 110102653.780 8        52.900    20951798.750 7  85794188.83947        43.000    20951798.574 8  85794190.832 8        49.800
G03  23485673.906 6 123418147.794 6        41.300    23485687.496 4  96170093.32044        26.200
> 2013  6 15  4 31 30.0000000  0 4
G21  24545890.484 6 128989570.203 6        38.300    24545905.273 3 100511402.01543        20.400
G16  21298642.109 8 111925232.445 8        51.600    21298650.602 6  87214537.81746        40.700
G31  20954052.805 8 110114542.231 8        52.900    20954061.313 7  85803452.53947        43.400    20954061.156 8  85803454.540 8        49.800
G03  23464264.000 7 123305632.455 7        42.900    23464277.395 4  96082419.18744        27.500
> 2013  6 15  4 32  0.0000000  0 4
G21  24537566.141 6 128945824.510 6        38.700    24537580.809 3 100477314.54243        20.600
G16  21293064.477 8 111895923.121 8        50.800    21293073.035 6  87191699.40746        40.500
G31  20956364.320 8 110126688.576 8        52.800    20956372.891 7  85812917.19847        43.800    20956372.461 8  85812919.199 8        49.800
G03  23442881.516 7 123193270.278 7        43.200    23442894.398 4  95994864.39944        26.900
> 2013  6 15  4 32 30.0000000  0 4
G21  24529272.859 6 128902240.363 6        38.300    24529286.449 3 100443352.96043        21.300
G16  21287543.883 8 111866911.315 8        51.000    21287552.469 6  87169092.82746        40.000
G31  20958724.484 8 110139093.182 8        52.800    20958733.117 7  85822583.10647        43.500    20958732.758 8  85822585.108 8        49.600
G03  23421528.797 7 123081062.856 7        42.200    23421542.039 4  95907430.17444        26.400
> 2013  6 15  4 33  0.0000000  0 4
G21  24521010.219 5 128858819.451 5        35.400    24521023.648 3 100409518.57043        18.300
G16  21282079.531 8 111838195.919 8        51.200    21282088.172 6  87146717.21946        40.100
G31  20961134.570 8 110151756.639 8        52.900    20961142.762 7  85832450.70747        44.200    20961142.668 8  85832452.715 8        49.600
G03  23400206.367 7 122969012.188 7        42.700    23400218.738 4  95820118.12644        26.800
> 2013  6 15  4 33 30.0000000  0 4
G21  24512778.172 6 128815565.045 6        36.100    24512792.672 3 100375813.92243        19.300
G16  21276671.648 8 111809776.906 8        50.800    21276680.117 6  87124572.55946        40.500
G31  20963593.883 8 110164680.692 8        52.800    20963602.180 7  85842521.37747        43.800    20963602.082 8  85842523.378 8        49.400
G03  23378914.547 7 122857121.280 7        43.400    23378926.770 4  95732930.54744        26.200
> 2013  6 15  4 34  0.0000000  0 4
G21  24504579.320 6 128772479.154 6        37.500    24504592.176 3 100342240.56843        19.600
G16  21271319.805 8 111781653.215 8        51.100    21271328.273 6  87102658.01946        40.500
G31  20966103.016 8 110177866.265 8        52.800    20966111.770 7  85852795.82647        43.700    20966111.445 8  85852797.820 8        49.400
G03  23357652.766 7 122745392.248 7        42.500    23357664.828 4  95645869.09944        26.700
> 2013  6 15  4 34 30.0000000  0 4
G21  24496413.156 6 128729564.299 6        38.400    24496425.723 3 100308800.48043        19.600
G16  21266024.031 8 111753824.259 8        50.800    21266032.324 6  87080973.14346        41.000
G31  20968661.852 8 110191314.519 8        52.400    20968670.586 7  85863274.96647        43.500    20968670.145 8  85863276.961 8        49.100
G03  23336422.227 7 122633827.588 7        43.000    23336435.383 4  95558935.73544        27.000
> 2013  6 15  4 35  0.0000000  0 4
G21  24488279.719 6 128686822.998 6        38.700    24488293.016 3 100275495.65043        20.400
G16  21260784.391 8 111726288.970 8        50.300    21260792.387 6  87059517.09046        40.000
G31  20971271.281 8 110205026.371 8        52.300    20971279.852 7  85873959.50547        43.600    20971279.793 8  85873961.506 8        49.500
G03  23315224.016 7 122522429.692 7        43.000    23315235.992 4  95472132.31444        25.700
> 2013  6 15  4 35 30.0000000  0 4
G21  24480178.906 6 128644257.057 6        37.900    24480193.141 3 100242327.39843        19.000
G16  21255600.352 8 111699046.340 8        50.300    21255608.578 6  87038289.08446        40.300
G31  20973930.609 8 110219002.554 8        52.700    20973939.008 7  85884850.01447        43.800    20973939.008 8  85884852.015 8        49.600
G03  23294058.133 7 122411200.845 7        43.000    23294070.145 4  95385460.63544        26.800
> 2013  6 15  4 36  0.0000000  0 4
G21  24472113.359 6 128601869.350 6        37.400    24472126.270 3 100209298.10043        18.600
G16  21250471.867 8 111672095.959 8        51.200    21250479.867 6  87017288.81646        40.100
G31  20976641.063 8 110233244.543 8        52.400    20976649.660 7  85895947.65247        43.800    20976649.258 8  85895949.645 8        49.400
G03  23272924.461 7 122300143.308 7        43.800    23272936.277 4  95298922.44144        28.100
> 2013  6 15  4 36 30.0000000  0 4
G21  24464081.234 6 128559662.759 6        37.600    24464094.934 3 100176409.88443        19.000
G16  21245398.828 8 111645437.371 8        50.300    21245406.395 6  86996515.90246        40.200
G31  20979402.328 8 110247753.768 8        52.600    20979410.602 7  85907253.51047        43.800    20979410.496 8  85907255.504 8        49.600
G03  23251823.914 7 122189260.150 7        44.000    23251836.102 4  95212520.11844        27.600
> 2013  6 15  4 37  0.0000000  0 4
G21  24456084.172 6 128517638.217 6        36.300    24456098.008 3 100143663.59243        19.000
G16  21240380.680 8 111619068.358 8        50.800    21240388.941 6  86975968.62646        40.600
G31  20982213.945 8 110262529.968 8        53.300    20982222.660 7  85918767.40847        44.100    20982222.605 8  85918769.402 8        49.200
G03  23230756.781 7 122078552.483 7        43.200    23230768.898 4  95126254.54044        27.600
> 2013  6 15  4 37 30.0000000  0 4
G21  24448122.336 5 128475799.160 5        34.600    24448135.852 3 100111061.80743        18.600
G16  21235418.258 8 111592989.309 8        50.100    21235426.336 6  86955647.30546        40.400
G31  20985076.820 8 110277575.407 8        53.200    20985085.555 7  85930491.10247        43.400    20985085.297 8  85930493.103 8        49.500
G03  23209723.672 7 121968023.656 7        43.200    23209736.473 4  95040128.33044        28.200
> 2013  6 15  4 38  0.0000000  0 4
G21  24440196.656 6 128434147.243 6        38.000    24440210.199 3 100078605.82643        20.900
G16  21230509.992 8 111567198.450 8        50.300    21230518.699 6  86935550.54046        40.600
G31  20987991.422 8 110292890.274 8        52.700    20987999.758 7  85942424.74047        43.600    20987999.758 8  85942426.734 8        49.300
G03  23188725.086 7 121857675.584 7        44.300    23188737.637 4  94954142.94444        28.100
> 2013  6 15  4 38 30.0000000  0 4
G21  24432306.188 6 128392684.852 6        37.100    24432320.070 3 100046297.56743        21.800
G16  21225656.656 8 111541695.041 8        49.100    21225665.238 6  86915677.76846        40.400
G31  20990957.188 8 110308475.721 8        52.500    20990965.684 7  85954569.21247        43.700    20990965.527 8  85954571.212 8        49.600
G03  23167761.789 7 121747510.389 7        44.300    23167773.957 4  94868300.06244        28.300
> 2013  6 15  4 39  0.0000000  0 4
G21  24424452.680 6 128351414.425 6        38.100    24424467.094 3 100014138.84043        21.300
G16  21220858.227 8 111516478.622 8        49.600    21220867.289 6  86896028.63146        40.500
G31  20993974.781 8 110324332.797 8        52.600    20993983.246 7  85966925.35447        43.200    20993982.855 8  85966927.355 8        49.100
G03  23146832.820 7 121637530.405 7        43.300    23146844.941 4  94782601.50244        28.700
> 2013  6 15  4 39 30.0000000  0 4
G21  24416636.273 6 128310338.619 6        37.900    24416649.754 3  99982131.82443        20.400
G16  21216114.438 8 111491548.324 8        50.000    21216122.973 6  86876602.43546        40.700
G31  20997044.102 8 110340462.872 8        52.900    20997052.707 7  85979494.21547        43.700    20997052.570 8  85979496.215 8        49.600
G19  25412044.20315 133541112.82815        35.000    25412060.30912 104058136.38052        16.900
> 2013  6 15  4 40  0.0000000  0 4
G21  24408856.922 6 128269459.171 6        37.500    24408870.566 3  99950277.80543        20.600
G16  21211424.570 8 111466903.070 8        50.500    21211432.957 6  86857398.35246        40.600
G31  21000165.922 8 110356866.554 8        52.100    21000174.215 7  85992276.27647        43.700    21000174.078 8  85992278.277 8        49.500
G19  25389520.328 6 133422750.091 6        36.900    25389537.613 2 103965905.47642        17.400
> 2013  6 15  4 40 30.0000000  0 4
G21  24401116.297 6 128228778.535 6        36.700    24401128.840 3  99918578.70643        19.300
G16  21206788.797 8 111442541.030 8        50.000    21206797.191 6  86838414.95846        41.300
G31  21003339.445 8 110373544.361 8        52.300    21003347.711 7  86005271.94147        43.500    21003347.672 8  86005273.942 8        49.800
G19  25366992.906 6 133304366.783 6        36.400    25367009.789 3 103873658.51343        18.600
> 2013  6 15  4 41  0.0000000  0 4
G21  24393412.469 6 128188299.772 6        36.700    24393425.473 3  99887036.90943        19.600
G16  21202206.719 8 111418462.736 8        49.100    21202215.336 6  86819652.66246        41.100
G31  21006565.547 8 110390498.574 8        51.900    21006574.309 7  86018482.99747        43.400    21006574.086 8  86018484.998 8        49.500
G19  25344462.492 6 133185966.266 6        36.300    25344478.914 3 103781398.15843        19.000
> 2013  6 15  4 41 30.0000000  0 4
G21  24385748.844 6 128148023.853 6        38.900    24385761.102 3  99855653.13843        19.300
G16  21197677.688 8 111394666.160 8        48.500    21197686.832 6  86801109.88646        41.100
G31  21009844.695 8 110407728.738 8        52.400    21009853.578 7  86031909.07547        43.400    21009853.082 8  86031911.069 8        49.400
G19  25321928.383 6 133067549.729 6        36.900    25321944.934 2 103689125.37942        17.800
> 2013  6 15  4 42  0.0000000  0 4
G21  24378123.977 6 128107954.549 6        37.500    24378136.379 3  99824430.41643        20.900
G16  21193203.891 8 111371151.916 8        48.100    21193212.129 6  86782787.10246        40.400
G31  21013176.250 8 110425237.663 8        52.300    21013184.898 7  86045552.36147        42.600    21013184.363 8  86045554.362 8        49.400
G19  25299392.445 5 132949121.408 5        35.700    25299409.066 2 103596843.45042        17.800
> 2013  6 15  4 42 30.0000000  0 4
G21  24370539.133 6 128068092.659 6        38.300    24370551.238 3  99793369.26643        21.300
G16  21188782.117 8 111347916.960 8        49.500    21188790.309 6  86764681.94846        40.800
G31  21016560.797 8 110443024.202 8        51.700    21016569.992 7  86059411.97647        43.200    21016569.488 8  86059413.976 8        49.900
G19  25276853.945 6 132830681.911 6        36.200    25276870.930 2 103504552.83842        17.400
> 2013  6 15  4 43  0.0000000  0 4
G21  24362992.578 6 128028440.705 6        36.900    24363005.445 3  99762471.70543        21.100
G16  21184413.758 8 111324961.317 8        48.800    21184422.070 6  86746794.43646        40.800
G31  21019998.883 8 110461089.978 8        51.900    21020007.332 7  86073489.18047        43.000    21020007.105 8  86073491.181 8        48.500
G19  25254313.711 5 132712233.999 5        35.100    25254331.539 2 103412255.77642        17.400
> 2013  6 15  4 43 30.0000000  0 4
G21  24355487.039 6 127989001.713 6        37.500    24355500.133 3  99731740.09643        20.600
G16  21180098.813 8 111302284.531 8        50.700    21180106.820 6  86729124.21946        41.100
G31  21023490.141 8 110479436.765 8        52.400    21023498.645 7  86087785.35547        43.100    21023498.531 8  86087787.356 8        49.100
G19  25231773.477 5 132593780.707 5        35.600    25231790.410 3 103319954.55643        19.000
> 2013  6 15  4 44  0.0000000  0 4
G21  24348023.141 6 127949777.834 6        36.000    24348035.945 3  99701176.12743        20.600
G16  21175836.398 8 111279885.862 8        49.100    21175844.531 6  86711670.71446        40.800
G31  21027035.172 8 110498065.409 8        52.400    21027043.445 7  86102301.14647        43.400    21027043.125 8  86102303.147 8        49.800
G19  25209230.984 5 132475324.620 5        35.900    25209249.641 3 103227651.20243        19.300
> 2013  6 15  4 44 30.0000000  0 4
G21  24340600.320 5 127910770.817 5        35.200    24340613.992 3  99670781.16343        20.900
G16  21171626.391 8 111257763.432 8        49.700    21171634.688 6  86694432.46246        40.800
G31  21030633.516 8 110516976.012 8        51.900    21030642.641 7  86117036.65547        43.500    21030642.121 8  86117038.649 8        49.500
G19  25186689.117 6 132356867.450 6        37.000    25186707.953 3 103135347.02343        18.600
> 2013  6 15  4 45  0.0000000  0 4
G21  24333219.281 6 127871983.119 6        37.700    24333231.824 3  99640557.05643        20.900
G16  21167469.242 8 111235916.084 8        49.600    21167477.656 6  86677408.55946        41.300
G31  21034286.102 8 110536169.497 8        52.100    21034294.961 7  86131992.59247        43.600    21034294.586 8  86131994.592 8        48.900
G19  25164147.930 6 132238411.907 6        36.800    25164167.059 3 103043044.15143        19.300
> 2013  6 15  4 45 30.0000000  0 4
G21  24325881.000 6 127833417.055 6        37.200    24325893.070 3  99610505.68043        20.600
G16  21163364.242 8 111214343.755 8        49.600    21163372.453 6  86660598.96146        40.700
G31  21037992.734 8 110555647.629 8        52.000    21038001.258 7  86147170.32847        43.200    21038001.063 8  86147172.329 8        49.000
G19  25141607.859 6 132119960.861 6        36.900    25141624.980 2 102950744.79042        17.800
> 2013  6 15  4 46  0.0000000  0 4
G21  24318585.242 6 127795074.765 6        39.200    24318595.531 3  99580628.64243        19.900
G16  21159311.172 8 111193044.618 8        48.400    21159319.660 6  86644002.23646        40.900
G31  21041753.820 8 110575410.553 8        52.700    21041761.984 7  86162569.97647        43.700    21041761.797 8  86162571.970 8        48.800
G19  25119067.289 6 132001515.776 6        36.100    25119085.133 3 102858450.14343        18.300
> 2013  6 15  4 46 30.0000000  0 4
G21  24311331.266 6 127756958.727 6        38.300    24311342.586 3  99550927.95443        19.600
G16  21155310.180 8 111172018.635 8        49.600    21155318.152 6  86627618.35646        41.300
G31  21045568.859 8 110595460.189 8        52.100    21045577.543 7  86178193.04047        43.600    21045577.355 8  86178195.041 8        49.300
G19  25096529.594 6 131883080.190 6        36.300    25096546.855 2 102766162.90842        16.900
> 2013  6 15  4 47  0.0000000  0 4
G21  24304121.508 6 127719070.874 6        37.900    24304132.469 3  99521404.99043        20.900
G16  21151360.563 8 111151264.654 8        49.700    21151368.738 6  86611446.41746        41.400
G31  21049438.789 8 110615796.683 8        51.500    21049447.660 7  86194039.62947        43.100    21049447.047 8  86194041.623 8        48.800
G19  25073995.352 6 131764656.248 6        38.700    25074011.734 3 102673884.84443        20.600
> 2013  6 15  4 47 30.0000000  0 4
G21  24296954.594 6 127681413.686 6        37.500    24296967.203 3  99492061.83443        20.400
G16  21147462.570 8 111130781.723 8        48.800    21147471.262 6  86595485.69846        41.400
G31  21053363.477 8 110636421.432 8        52.100    21053372.383 7  86210110.83647        43.000    21053372.070 8  86210112.837 8        49.300
G19  25051462.203 6 131646246.345 6        39.300    25051479.637 3 102581617.68543        22.300
> 2013  6 15  4 48  0.0000000  0 4
G21  24289832.734 6 127643988.925 6        38.700    24289845.504 3  99462899.75043        20.600
G16  21143616.500 8 111110568.430 8        50.200    21143624.645 6  86579735.07946        41.000
G31  21057343.133 8 110657334.629 8        51.400    21057351.734 7  86226406.80447        43.200    21057351.207 8  86226408.805 8        49.100
G19  25028932.484 6 131527852.884 6        39.400    25028949.551 3 102489363.42943        21.500
> 2013  6 15  4 48 30.0000000  0 4
G21  24282756.422 6 127606799.247 6        37.500    24282769.527 3  99433920.88843        21.300
G16  21139820.930 8 111090624.532 8        51.000    21139829.145 6  86564194.38246        41.100
G31  21061377.867 8 110678537.855 8        52.500    21061386.383 7  86242928.76647        43.800    21061386.211 8  86242930.759 8        48.700
G19  25006405.430 6 131409478.423 6        37.200    25006423.570 3 102397123.96443        18.300
> 2013  6 15  4 49  0.0000000  0 4
G21  24275723.852 6 127569847.228 6        36.600    24275737.309 3  99405127.17143        21.700
G16  21136077.086 8 111070948.579 8        49.800    21136085.039 6  86548862.47346        41.100
G31  21065468.398 8 110700032.060 8        51.500    21065477.328 7  86259677.47147        43.300    21065477.031 8  86259679.472 8        49.300
G19  24983883.828 6 131291125.461 6        38.100    24983901.016 3 102304901.31743        19.600
> 2013  6 15  4 49 30.0000000  0 4
G21  24268738.531 6 127533134.303 6        39.200    24268750.977 3  99376519.79843        21.100
G16  21132383.898 8 111051539.853 8        49.500    21132391.844 6  86533738.79346        41.400
G31  21069614.195 8 110721818.043 8        52.400    21069622.910 7  86276653.53247        43.400    21069622.344 8  86276655.533 8        49.200
G19  24961366.375 6 131172796.897 6        38.500    24961382.949 3 102212697.65843        19.600
> 2013  6 15  4 50  0.0000000  0 4
G21  24261797.922 6 127496662.256 6        40.200    24261809.355 3  99348100.06743        20.400
G16  21128740.727 8 111032396.535 8        50.800    21128748.965 6  86518821.93646        41.200
G31  21073815.734 8 110743896.082 8        52.100    21073824.289 7  86293857.17147        42.700    21073823.832 8  86293859.172 8        49.300
G19  24938853.711 6 131054494.109 6        39.100    24938870.656 3 102120514.09143        21.500
> 2013  6 15  4 50 30.0000000  0 4
G21  24254903.055 6 127460434.030 6        39.000    24254916.012 3  99319870.34743        20.600
G16  21125148.344 8 111013518.394 8        49.900    21125156.652 6  86504111.71246        41.700
G31  21078072.602 8 110766267.648 8        52.300    21078081.516 7  86311289.53347        43.100    21078080.930 8  86311291.540 8        49.300
G19  24916346.781 6 130936220.574 6        37.300    24916363.656 3 102028353.35643        21.100
> 2013  6 15  4 51  0.0000000  0 4
G21  24248056.414 6 127424451.397 6        38.200    24248068.527 3  99291832.00743        21.100
G16  21121606.422 8 110994904.177 8        50.100    21121614.582 6  86489607.14146        41.700
G31  21082386.125 8 110788933.241 8        52.300    21082394.531 7  86328951.01147        43.600    21082394.164 8  86328953.012 8        48.600
G19  24893843.344 5 130817978.073 5        34.200    24893862.059 3 101936216.87643        19.300
> 2013  6 15  4 51 30.0000000  0 4
G21  24241256.469 6 127388716.903 6        39.300    24241268.215 3  99263986.98343        20.900
G16  21118113.914 8 110976553.269 8        50.900    21118122.383 6  86475307.74046        41.700
G31  21086755.156 8 110811894.191 8        52.800    21086763.750 7  86346842.63447        43.000    21086763.734 8  86346844.634 8        48.900
G19  24871350.391 6 130699769.668 6        36.200    24871367.270 3 101844107.01743        19.300
> 2013  6 15  4 52  0.0000000  0 4
G21  24234503.719 6 127353232.788 6        38.600    24234516.145 3  99236337.10643        21.500
G16  21114672.141 8 110958464.786 8        51.100    21114680.254 6  86461212.82646        41.800
G31  21091180.875 8 110835151.446 8        51.600    21091189.828 7  86364965.13947        43.100    21091189.563 8  86364967.140 8        48.600
G19  24848862.156 6 130581598.108 6        37.700    24848879.391 3 101752025.80443        19.900
> 2013  6 15  4 52 30.0000000  0 4
G21  24227799.250 6 127318000.818 6        40.000    24227811.547 3  99208883.67043        21.300
G16  21111279.563 8 110940637.331 8        51.900    21111287.391 6  86447321.30346        41.900
G31  21095662.875 8 110858705.468 8        52.800    21095671.711 7  86383318.89447        43.100    21095671.141 8  86383320.895 8        48.500
G19  24826381.555 6 130463465.085 6        37.300    24826398.676 3 101659974.60443        19.000
> 2013  6 15  4 53  0.0000000  0 4
G21  24221143.438 6 127283022.818 6        40.100    24221156.129 3  99181628.18143        21.700
G16  21107936.281 8 110923069.517 8        52.100    21107944.688 7  86433632.10347        42.000
G31  21100201.867 8 110882557.099 8        51.900    21100210.805 7  86401904.55147        42.200    21100210.578 8  86401906.552 8        48.900
G19  24803909.586 5 130345373.310 5        35.100    24803926.523 3 101567955.55043        19.000
> 2013  6 15  4 53 30.0000000  0 4
G21  24214536.047 6 127248301.529 6        40.300    24214549.633 3  99154572.69343        22.300
G16  21104642.313 8 110905760.749 8        50.800    21104650.719 6  86420144.76046        41.600
G31  21104797.891 8 110906707.064 8        51.800    21104806.156 7  86420722.67847        42.900    21104805.891 8  86420724.679 8        48.800
G19  24781445.602 6 130227325.695 6        37.500    24781462.520 3 101475971.04543        20.600
> 2013  6 15  4 54  0.0000000  0 4
G21  24207978.172 6 127213838.821 6        39.900    24207990.836 3  99127718.72143        22.200
G16  21101397.953 8 110888710.439 8        51.600    21101406.492 6  86406858.80946        41.400
G31  21109450.063 8 110931156.626 8        51.900    21109458.641 7  86439774.25447        43.300    21109458.574 8  86439776.255 8        49.000
G19  24758990.609 6 130109324.628 6        39.900    24759006.789 3 101384022.71343        22.900
> 2013  6 15  4 54 30.0000000  0 4
G21  24201469.453 6 127179636.017 6        38.400    24201482.727 3  99101067.25443        21.800
G16  21098202.117 8 110871916.349 8        51.400    21098210.148 6  86393772.51846        41.700
G31  21114159.680 8 110955905.444 8        51.700    21114168.594 7  86459059.02247        43.100    21114168.566 8  86459061.022 8        48.800
G19  24736544.578 6 129991371.702 6        38.700    24736560.723 3 101292111.86443        22.800
> 2013  6 15  4 55  0.0000000  0 4
G21  24195010.484 6 127145695.840 6        40.000    24195023.012 3  99074620.43443        21.800
G16  21095055.023 8 110855378.499 8        52.100    21095063.695 6  86380885.87746        41.700
G31  21118926.352 8 110980955.353 8        51.400    21118935.051 7  86478578.41147        42.500    21118934.984 8  86478580.411 8        49.000
G19  24714107.250 6 129873470.330 6        36.900    24714123.480 3 101200241.19543        18.600
> 2013  6 15  4 55 30.0000000  0 4
G21  24188601.859 6 127112021.386 6        38.300    24188615.195 3  99048380.67043        22.000
G16  21091956.914 8 110839096.554 8        52.100    21091965.391 6  86368198.65746        41.100
G31  21123751.039 8 111006307.713 8        51.500    21123759.516 7  86498333.46947        42.700    21123759.223 8  86498335.463 8        49.100
G19  24691681.641 6 129755623.370 6        36.900    24691697.277 3 101108412.98743        19.900
> 2013  6 15  4 56  0.0000000  0 4
G21  24182245.523 6 127078613.744 6        38.900    24182257.441 3  99022348.81943        22.000
G16  21088906.477 8 110823068.330 8        52.300    21088915.059 6  86355709.12646        41.700
G31  21128632.961 8 111031962.771 8        52.200    21128641.730 7  86518324.39047        42.600    21128641.332 8  86518326.384 8        49.000
G19  24669266.953 6 129637832.773 6        37.800    24669282.543 4 101016628.68344        25.300
> 2013  6 15  4 56 30.0000000  0 4
G21  24175937.422 6 127045474.889 6        39.400    24175951.098 3  98996526.42443        21.800
G16  21085904.453 8 110807292.773 8        51.600    21085912.941 6  86343416.49346        41.700
G31  21133572.523 8 111057920.914 8        50.900    21133581.645 7  86538551.47447        42.700    21133581.551 8  86538553.475 8        48.500
G19  24646862.930 6 129520101.098 6        39.000    24646878.398 3 100924890.24743        22.600
> 2013  6 15  4 57  0.0000000  0 4
G21  24169683.867 6 127012606.912 6        40.000    24169696.867 3  98970915.11043        21.700
G16  21082950.883 8 110791769.128 8        51.900    21082958.879 7  86331320.14747        42.000
G31  21138570.133 8 111084183.146 8        50.700    21138579.047 7  86559015.51147        42.600    21138578.832 8  86559017.512 8        48.800
G19  24624470.656 6 129402430.774 6        38.200    24624486.238 3 100833199.63343        20.400
> 2013  6 15  4 57 30.0000000  0 4
G21  24163480.727 6 126980012.046 6        38.700    24163493.492 3  98945516.60243        22.200
G16  21080044.648 8 110776496.842 8        51.900    21080053.020 7  86319419.66547        42.400
G31  21143625.789 8 111110750.522 8        49.900    21143634.676 7  86579717.32747        42.800    21143634.434 8  86579719.328 8        48.800
G19  24602090.617 6 129284824.328 6        37.700    24602104.672 3 100741558.78243        20.600
> 2013  6 15  4 58  0.0000000  0 4
G21  24157331.328 6 126947692.467 6        40.000    24157343.605 3  98920332.59743        21.800
G16  21077186.039 8 110761474.974 8        52.100    21077194.707 6  86307714.32646        41.700
G31  21148739.859 8 111137623.987 8        50.900    21148748.738 7  86600657.65947        42.400    21148748.676 8  86600659.660 8        48.900
G19  24579722.867 6 129167284.915 6        39.700    24579737.965 3 100649970.13143        21.300
> 2013  6 15  4 58 30.0000000  0 4
G21  24151233.594 6 126915649.947 6        39.400    24151246.328 3  98895364.47943        22.000
G16  21074374.797 8 110746701.914 8        51.600    21074382.629 6  86296202.85246        41.600
G31  21153911.750 8 111164803.964 8        50.700    21153920.531 7  86621836.82547        43.000    21153920.289 8  86621838.826 8        48.700
G19  24557369.328 6 129049814.765 6        39.200    24557384.012 3 100558435.46443        22.200
> 2013  6 15  4 59  0.0000000  0 4
G21  24145189.305 6 126883887.066 6        39.400    24145202.426 3  98870614.27643        22.800
G16  21071610.813 8 110732177.332 8        51.900    21071619.000 6  86284885.00146        41.800
